item_id,name,star,cost,taste,environment,service,review_count,item_type,location,lng,lat
10023099,圣岛咖啡(一代天骄店),4.0,0.0,7.6,7.8,7.6,48 条点评,咖啡厅 , 人民公园 临园路东段55号，一代天骄大厦3楼,104.75517928015677,31.46874612706146
10330717,也留香,3.0,0.0,7.1,6.8,7.0,3 条点评,川菜 , 园艺山 城郊乡科创园区新庙村餐厅,104.71717350114896,31.489747957825198
10332260,樊得很,3.0,0.0,7.3,7.2,7.3,4 条点评,火锅 , 六里村 中经路,104.76837771021809,31.493796051375803
10333390,三顾冒菜,3.0,0.0,7.1,7.1,7.1,1 条点评,川菜 , 安县其他 安昌镇步行街,104.57375300783407,31.540642582807937
10335487,杰士休闲驿站(江油清香园店),4.0,0.0,7.8,7.7,7.7,7 条点评,其他 , 江油市中心城区 清香园路12号,104.75042663765277,31.781433473480604
10345515,乐薯,4.0,0.0,8.5,8.3,8.4,50 条点评,快餐简餐 , 长虹国际城 长虹缤纷时代广场4楼,113.88062681256646,22.598762701185713
10346789,尚品商务会说,3.0,0.0,7.4,7.5,7.3,4 条点评,咖啡厅 , 武都长钢街道 煽水路,105.13455295643098,33.29391719564859
10534502,金港湾休闲会所,3.0,0.0,6.9,6.9,6.9,1 条点评,咖啡厅 , 太平镇 太白广场诗城大酒店,104.7405110228573,31.778980359022885
10534539,茶鬼商务休闲会所,3.0,0.0,7.0,7.0,7.0,1 条点评,茶馆 , 涪城万达广场 滨河北路中段,104.72683031502531,31.459082603005047
10534542,开新商务休闲会所,3.0,0.0,7.0,7.0,7.0,1 条点评,咖啡厅 , 平武县其他 鹤翔街16-1号,104.40430826693263,32.446911722865075
10534572,往钰食府滋补汤锅,3.0,0.0,7.2,6.9,7.1,3 条点评,火锅 , 塘汛 二环路南段,104.77522566918852,31.38631133600127
10534608,李记片片鱼,3.0,0.0,6.9,6.9,6.9,2 条点评,火锅 , 安昌路 安昌西路2-2号,104.74522486485141,31.466183867462078
10534629,重庆幺妹豆花鱼,3.0,0.0,6.3,6.3,6.2,8 条点评,火锅 , 五里堆 海天名苑南门附近,104.76505102889756,31.486743566677983
10534644,子龙鱼庄,3.0,0.0,7.0,6.9,7.0,1 条点评,火锅 , 高水 高水南街6-28号,104.75057563329956,31.496504560453268
10534655,玉林串串香,3.0,0.0,7.1,6.8,7.0,3 条点评,火锅 , 南河 文兴街16号 ,126.62812640065899,45.73055077584
10534666,聚味庄特色干锅汤锅,4.0,0.0,8.1,7.8,8.1,6 条点评,川菜 , 高新区 弘光路17号,104.65860964122312,31.463667161828155
10534683,陈稀饭,3.0,0.0,7.0,6.9,6.7,6 条点评,快餐简餐 , 六里村 阳光路与华兴南街交叉口处,104.77696379153672,31.490251926947273
10534690,肥肠鸡,3.0,0.0,7.3,7.3,7.3,1 条点评,火锅 , 高新区 飞云大道东段16号,104.70203433054184,31.448375529599282
10534699,野山椒火锅城(北门店),5.0,0.0,9.0,9.0,8.9,63 条点评,火锅 , 江油市中心城区 江油市白云路90号,104.74795308605813,31.78317475051881
10534705,苗氏火锅,2.0,0.0,5.9,6.5,6.7,4 条点评,火锅 , 三台县中心城区 九倒拐,105.0929568760341,31.095663432357878
10534768,蒋甘锅,3.0,0.0,7.3,7.0,7.3,12 条点评,火锅 , 花荄镇 文竹街,104.56333811573447,31.54875596210758
10534778,开元口口香米粉,3.0,0.0,6.8,6.4,6.8,1 条点评,火锅 , 塘汛 塘汛南街239号,120.98054174383113,31.37988389144655
10534784,纳奇比萨西餐厅,3.0,0.0,6.4,6.4,6.4,1 条点评,西餐 , 南湖 六一堂路669号,120.84453542647287,30.71635792123517
10534797,本味轩乡村家宴坊,3.0,0.0,6.8,6.3,6.8,1 条点评,东北菜 , 南湖 六一堂路610-2号,120.84453542647287,30.71635792123517
10534897,金手指纯清油小火锅,3.0,0.0,7.2,7.2,7.2,1 条点评,火锅 , 凯德广场 涪华路11号,104.741155375603,31.469961273055972
10534919,兄弟连烧烤庄,3.0,0.0,7.3,6.6,7.3,1 条点评,烧烤 , 安昌路 安昌西路40号,104.73815801847226,31.465211869842754
10534952,雨露缘柴火鸡,4.0,0.0,8.2,7.9,8.2,14 条点评,火锅 , 江油市中心城区 诗城路青少年宫对面小巷内150米处,113.58217734396166,37.86890735862165
10534971,醋水芙蓉饮吧,3.0,0.0,7.3,7.3,7.3,1 条点评,咖啡厅 , 芙蓉汉城 芙蓉汉城16-2号,104.77741958995588,31.479779348411565
10534984,洺如意滋味馆,3.0,0.0,7.7,7.2,7.7,1 条点评,咖啡厅 , 圣水 花园星河湾底商,116.03539784870385,39.91215206880499
10534992,三正尚岛,3.0,0.0,7.2,7.6,7.6,1 条点评,咖啡厅 , 小岛 高水中街3号,104.74863754994145,31.502488658703477
10534999,海阔天空茶楼,3.0,0.0,7.3,7.3,7.3,1 条点评,茶馆 , 开元场 滨江东路南段11-1号,104.7679441268942,31.470328667374474
10535000,蒋干鍋北川总店,3.0,0.0,7.0,6.6,7.0,2 条点评,川菜 , 永昌镇 安州大道西段,104.42922706155521,31.650099147331993
10535010,江南小屋,3.0,0.0,7.3,7.3,7.3,1 条点评,咖啡厅 , 人民公园 安昌路18号,104.754978281604,31.465464111899763
10535094,爱侬音乐茶居,3.0,0.0,7.1,7.2,7.3,2 条点评,茶馆 , 五一广场 跃进路北段34号,104.74988365598895,31.48944753625946
10535161,福缘休闲会所,3.0,0.0,6.8,6.8,6.8,1 条点评,咖啡厅 , 六里村 中经路38-4号,104.7713169451857,31.497716420626915
10535175,巧克力咖啡馆,3.0,0.0,7.2,7.3,7.3,11 条点评,咖啡厅 , 步行街 翠花街2-12号,104.76082585521952,31.465565621352297
10535210,龙翔春茶语,3.0,0.0,6.8,6.8,6.4,1 条点评,茶馆 , 开元场 芙蓉溪路36-12号,104.77092649040766,31.470501003563957
10535246,香飘飘茶楼,3.0,0.0,7.0,7.0,7.0,1 条点评,茶馆 , 芙蓉汉城 芙蓉汉城48-6号,104.78116950522251,31.484810587036126
10535277,三木森会所,3.0,0.0,7.5,7.5,7.5,3 条点评,咖啡厅 , 五一广场 平政一巷28-1号旁,104.75255314508311,31.48802890659129
10535285,东津休闲茶楼,3.0,0.0,6.3,6.3,6.3,2 条点评,茶馆 , 沈家坝 沈家坝商业城4-3号,104.78717309743732,31.46759217840243
10535289,紫藤阁休闲茶屋,3.0,0.0,6.8,6.8,6.8,1 条点评,茶馆 , 五一广场 平政一巷28-31号旁,104.75255314508311,31.48802890659129
10535314,冰咖啡,3.0,0.0,7.0,6.9,7.0,1 条点评,咖啡厅 , 人民公园 安昌路18号,104.754978281604,31.465464111899763
10535315,丹桂香咖啡茶艺坊,3.0,0.0,7.6,7.6,7.6,2 条点评,咖啡厅 , 芙蓉汉城 芙蓉汉城36-17号,104.7783319395742,31.480660856030898
10535374,廊桥会所,3.0,0.0,7.3,7.3,7.3,2 条点评,咖啡厅 , 御营坝 滨河南路东段14号,104.75192624461687,31.462832010085506
10535385,五福茶楼,2.0,0.0,6.3,6.3,6.3,1 条点评,茶馆 , 五里堆 五里堆路49-1号,104.76735214715634,31.48653876968967
10535390,天添茶园,3.0,0.0,7.3,7.3,7.3,1 条点评,茶馆 , 南河 南河体育中心内,104.75831224369067,31.454748713242523
10535396,科伦巴上品会馆,3.0,0.0,6.8,7.0,7.0,3 条点评,咖啡厅 , 东方华尔街 长虹大道中段33-5号,104.74414028311766,31.48493773483055
10535423,闲逸茶楼,3.0,0.0,7.3,7.3,7.3,1 条点评,茶馆 , 南河 解放街50-1号,114.65708249302835,32.961893618059186
10535471,四川音乐学院绵阳艺术学院-音乐...,3.0,0.0,7.6,7.5,7.5,3 条点评,咖啡厅 , 南湖 机场东路83号,120.84453542647287,30.71635792123517
10535485,金壶园茶楼,3.0,0.0,7.3,7.1,7.3,1 条点评,茶馆 , 双碑 普明北路东段506号,104.703101927115,31.474426850285287
10535487,驿尚轩,2.0,0.0,5.9,5.9,5.9,1 条点评,咖啡厅 , 园艺山 科园路27号,104.71734804190955,31.496997217727035
10535492,紫悦茶坊,3.0,0.0,7.5,7.5,7.5,1 条点评,茶馆 , 桃园路 剑门路东段54号,104.73668206209562,31.46960860974502
10535546,城市海岛,3.0,0.0,7.1,7.2,7.1,4 条点评,咖啡厅 , 涪城万达广场 滨河北路中段,104.72683031502531,31.459082603005047
10535564,朝天门,3.0,0.0,7.4,7.4,7.4,1 条点评,咖啡厅 , 安县中心城区 银河大道西段,104.5672812259739,31.535637160059654
10535582,龙艺茶庄,3.0,0.0,7.6,7.6,7.6,1 条点评,茶馆 , 花荄镇 金鸿路东段,104.5685205668826,31.548661789007806
10535627,贵州遵义豆花面羊肉米线,3.0,0.0,7.7,7.2,7.7,1 条点评,小吃面食 , 高水 长虹大道北段66-13号,104.74628902001616,31.491559421488525
10535650,友谊茶坊,3.0,0.0,7.4,7.4,7.4,1 条点评,茶馆 , 高新区 幸福巷宏鑫商务宾馆前面,104.63472950166471,31.466471633664188
10535655,正宗贵州花溪牛肉米线,3.0,0.0,7.5,7.2,7.2,6 条点评,小吃面食 , 新世界百货 富乐路5-12号,104.75010676453525,31.471741449800508
10535681,鸡汁水饺,3.0,0.0,6.5,6.3,6.5,3 条点评,小吃面食 , 布鲁斯国际 温州商贸广场附近,114.38621228911902,27.803241443399727
10535698,龙腾砂锅居,3.0,0.0,7.2,7.2,7.2,1 条点评,快餐简餐 , 北坝镇 梓州干道,105.09519744939979,31.11927820045561
10535715,食家庄香辣馆,3.0,0.0,7.1,7.0,7.1,7 条点评,川菜 , 西科大 青义路,121.52972465401899,32.0112081697474
10535725,V8一代佳人俱乐部,3.0,0.0,7.7,7.7,7.7,1 条点评,酒吧 , 铁牛广场 勇拓路4号,104.75825270579807,31.471581354313543
10535727,伯爵1号音乐酒吧,3.0,0.0,7.1,7.1,7.1,1 条点评,酒吧 , 安昌路 安昌路55-12号,104.74906899439993,31.466797697491895
10535738,欧罗吧音乐酒吧,3.0,0.0,6.8,6.9,6.8,1 条点评,酒吧 , 老茶树 长虹大道南段2-5号,104.74612909288962,31.463046594303734
10535740,青山绿水,3.0,0.0,6.8,6.8,6.8,1 条点评,咖啡厅 , 五里堆 五里堆路,104.76505102889756,31.486743566677983
10535744,任我行的酒铺分舵,3.0,0.0,7.2,7.6,7.6,1 条点评,酒吧 , 御营坝 御南街12-1号,104.75302429374682,31.45266170777222
10535745,云朵羌吧酒馆,3.0,0.0,7.3,7.3,7.3,3 条点评,酒吧 , 芙蓉汉城 芙蓉汉城13-12号,104.77678789792805,31.480004827716638
10535777,尘忆酒吧,3.0,0.0,6.7,6.7,6.7,4 条点评,酒吧 , 高水 跃进路北段世纪城2期,104.74875100592736,31.497230451988735
10535779,虎牙酒吧,3.0,0.0,7.7,7.7,7.7,2 条点评,酒吧 , 火炬广场 火炬北路13-22号,104.69156561736591,31.472903760063584
10535801,成都串串香,3.0,0.0,7.2,7.2,7.2,1 条点评,火锅 , 铁牛广场 顺河中街4号,104.76303448034976,31.46803445751745
10535810,健康渔港,3.0,0.0,6.9,7.0,7.0,2 条点评,川菜 , 高新区 绵兴西路,104.63742165500689,31.464674237181722
10535823,老杨记高水杨米粉,3.0,0.0,7.2,7.2,7.2,1 条点评,快餐简餐 , 马家巷 文庙街1-3号,104.76377028239298,31.46159528153429
10535831,罗米粉,3.0,0.0,6.9,6.7,6.7,2 条点评,快餐简餐 , 高新区 兴亚路,121.5323593122153,38.86312801646913
10535833,姐妹鲜米粉,3.0,0.0,7.2,7.4,6.9,2 条点评,快餐简餐 , 南湖 红桥西路,120.84453542647287,30.71635792123517
10535835,无名指,3.0,0.0,6.8,6.9,6.8,1 条点评,快餐简餐 , 六里村 远六区28号,104.76876201609491,31.500453560933
10535869,德华开元米粉,3.0,0.0,7.3,7.3,7.3,2 条点评,快餐简餐 , 高水 跃进路北段103-13号,104.74411255961301,31.506712254595758
10535874,玛吉阿米酒吧,3.0,0.0,6.4,6.4,6.4,1 条点评,酒吧 , 安昌路 安昌路55-11号,104.7483617243363,31.466618314276303
10535880,永强胖米粉,3.0,0.0,7.6,7.6,7.6,1 条点评,快餐简餐 , 涪城万达广场 花园北街14号,104.72703966781933,31.46233408116738
10535892,云南过桥米线,3.0,0.0,7.4,7.4,7.4,5 条点评,快餐简餐 , 西科大 青义路,121.52972465401899,32.0112081697474
10535897,开元廖米粉,3.0,0.0,6.8,6.7,7.2,3 条点评,快餐简餐 , 涪城万达广场 金菊街1-9号,104.72713108747277,31.465405926463244
10535901,阿里郎台式快餐厅,3.0,0.0,7.1,7.0,7.0,6 条点评,快餐简餐 , 西科大 青义路,121.52972465401899,32.0112081697474
10535907,蒋氏旺福米粉,3.0,0.0,6.9,6.9,7.0,1 条点评,快餐简餐 , 安昌路 三汇路21-5号,104.73813809495437,31.46517153551795
10535910,毛记和意冒菜(绵阳花园店),3.0,0.0,7.1,6.9,7.0,1 条点评,快餐简餐 , 涪城万达广场 花园南街32号,104.72228704867126,31.459823665765317
10535912,开元龙米粉,3.0,0.0,7.1,7.1,7.1,1 条点评,快餐简餐 , 高水 跃进路北段85-6号,104.7473652528985,31.499731710415073
10535914,康富源老开元米粉,3.0,0.0,7.3,6.8,6.6,7 条点评,快餐简餐 , 涪城区 荷花西街1-15号,104.71666738863819,31.464313193006504
10535915,升元赖米粉,3.0,0.0,6.8,7.1,7.1,1 条点评,快餐简餐 , 御营坝 长虹大道南段52-5号,104.7490035986571,31.45816521827545
10535916,舒记肥肠粉,3.0,0.0,6.7,6.7,6.8,2 条点评,快餐简餐 , 东方红大桥 成绵路1巷3-3号,104.7544573120184,31.47202690134817
10535929,蒲开元米粉,3.0,0.0,6.9,6.6,6.6,2 条点评,快餐简餐 , 六里村 华兴上街3-2号,104.77922607065847,31.495599387840215
10535932,开元赵米粉,3.0,0.0,6.4,6.4,6.4,1 条点评,快餐简餐 , 人民公园 临园路东段56号,104.75576180522913,31.46975797084366
10535951,南粉北面,3.0,0.0,6.9,6.7,6.8,1 条点评,快餐简餐 , 涪城万达广场 花园东街33号,104.72706869746018,31.46109426238935
10535957,尚客善品中式快餐连锁,3.0,0.0,7.6,7.6,7.6,1 条点评,快餐简餐 , 人民公园 兴达街绵阳电影院对面,104.7542011063039,31.467296441196666
10535975,开元胖姐米粉,3.0,0.0,7.1,6.8,7.4,2 条点评,快餐简餐 , 花园小区 临园路西段5号,104.73191388609274,31.46540040153915
10535984,开元山西米粉,3.0,0.0,7.4,7.4,7.4,1 条点评,快餐简餐 , 步行街 西大街46-4号,104.75874846623614,31.463983691594944
10535993,升元米粉,3.0,0.0,6.4,6.4,6.4,2 条点评,快餐简餐 , 西科大 青义路,121.52972465401899,32.0112081697474
10536004,思琳饭店,3.0,0.0,6.7,6.8,6.7,5 条点评,快餐简餐 , 西科大 青羊西街12号,104.70617828841873,31.546210975861857
10536020,嘉怡肥肠馆,3.0,0.0,7.4,6.8,6.9,3 条点评,快餐简餐 , 六里村 六里村,122.33586601470805,40.38211072514845
10536045,永华米粉(九洲国际店),3.0,0.0,7.2,6.8,7.2,1 条点评,快餐简餐 , 九洲国际 跃进东街7-7号,104.75364507136271,31.47810190381209
10536061,奇味罐罐饭,3.0,0.0,7.2,7.0,7.2,1 条点评,快餐简餐 , 桃园路 剑南路西段81-7号,104.73967334398618,31.473207508790185
10536071,冒牌火锅菜,3.0,0.0,7.1,7.1,7.1,1 条点评,快餐简餐 , 凯德广场 临园路中段32-3号,104.74247879341591,31.46919222578788
10536091,东升休闲茶楼,3.0,0.0,7.6,7.6,7.6,1 条点评,茶馆 , 六里村 六里村建材市场阳光路46号,104.77737434949378,31.491008175711084
10536092,食尚客卤肉卷,3.0,0.0,6.8,6.8,7.2,1 条点评,面包甜点 , 步行街 公园路3号,104.75768215154494,31.46671679589282
10536150,年华鲜米粉,3.0,0.0,7.5,7.4,7.5,3 条点评,快餐简餐 , 园艺山 园艺东街9号,104.70887028365912,31.487359885893692
10536161,五牛大酒店宴会厅,2.0,0.0,6.0,6.0,6.0,1 条点评,粤菜 , 沿江路 沿江东街61号,104.74910900043581,31.468057904993014
10536169,盘中餐食府,3.0,0.0,7.4,7.4,7.4,1 条点评,川菜 , 安县中心城区 启明星大道南段,104.57195089379456,31.544238790680826
10536183,一口钟,4.0,0.0,8.5,8.2,8.4,51 条点评,快餐简餐 , 江油市中心城区 江油涪江路东段26号,104.76155046841848,31.76921407447107
10536196,好实在饭庄,3.0,0.0,6.8,7.1,6.8,1 条点评,新疆菜 , 五一广场 西山东路95号,104.75139066049894,31.48486658361181
10536231,剑门豆腐家常菜,3.0,0.0,7.2,7.2,7.7,1 条点评,东北菜 , 东方红大桥 成绵路1巷9-8号,104.75498356932965,31.472355048530233
10536250,避风塘 分店,3.0,0.0,6.8,6.8,6.8,1 条点评,面包甜点 , 步行街 公园路3号,104.75768215154494,31.46671679589282
10536272,六月雪(花园店) 分店,5.0,0.0,9.2,9.2,9.1,137 条点评,火锅 , 涪城区 临园路花园小区,104.73259011520946,31.463941733983752
10536286,家乡人饭店,3.0,0.0,7.6,7.6,7.6,1 条点评,快餐简餐 , 梓潼县其他 永乐街,105.07752722935724,31.570119288723465
10536292,西南科技大学城市学院-博味厅,3.0,0.0,7.2,7.1,7.1,9 条点评,快餐简餐 , 沈家坝 绵盐路,119.48627105131655,31.37204932798616
10536301,好吃屋食店,3.0,0.0,7.2,7.0,7.4,2 条点评,小吃面食 , 铁牛广场 铁牛街12-9号,104.75971926230586,31.469310340267594
10536320,大不同特色家常菜,3.0,0.0,7.3,7.3,7.3,1 条点评,东北菜 , 平武县其他 德政街17号,104.40430826693263,32.446911722865075
10536391,亿碗香红烧肉,3.0,0.0,7.7,7.7,7.7,3 条点评,快餐简餐 , 沿江路 沿江东街55-12号,104.74805361452945,31.468044340976082
10536404,兰兰西饼(实验店),5.0,0.0,9.0,9.1,9.0,158 条点评,面包甜点 , 江油市中心城区 江油市诗仙路中段91号（实验中学旁）,104.7450759482555,31.782967690344936
10536409,兰兰西饼(302店),5.0,0.0,9.1,9.1,9.0,165 条点评,面包甜点 , 江油市中心城区 长钢路与江东路交叉十字路口,104.76459624915687,31.77308733910916
10536416,兰兰西饼(恒丰园店),4.0,0.0,8.8,8.7,8.7,124 条点评,面包甜点 , 江油市中心城区 江油市渝州路156号,104.7456007679785,31.77561558601461
10536422,天香人家,3.0,0.0,6.8,7.1,7.1,1 条点评,东北菜 , 涪城区 回龙东路,104.70657915545594,31.560095279367815
10536433,飘香冷锅鱼,3.0,0.0,7.3,6.9,7.1,7 条点评,火锅 , 西科大 科大路400号,120.48757588928872,36.120127799518606
10536441,鹅公馆口味菜,3.0,0.0,7.3,7.3,7.3,3 条点评,粤菜 , 圣水 长虹大道北段300-18号,104.73288842629982,31.515717895963157
10536458,茶司汇茶饮,3.0,0.0,6.8,6.8,6.9,8 条点评,面包甜点 , 西科大 西科大新校区外,113.86633758180707,22.775326147273237
10536472,勾魂面,3.0,0.0,7.7,7.4,7.4,2 条点评,小吃面食 , 六里村 华兴南街27号,104.77525973203517,31.490235504805426
10536487,好又来中餐,3.0,0.0,7.0,7.0,7.0,1 条点评,川菜 , 六里村 华星南街41号,104.77403255687797,31.490723380542544
10536509,都江堰乡味居,5.0,0.0,9.2,9.1,9.1,41 条点评,火锅 , 芙蓉汉城 芙蓉汉城48-3号,104.78116958786661,31.484620611621587
10536512,吴记通宵面,3.0,0.0,7.3,6.8,6.8,3 条点评,小吃面食 , 五里堆 治平路46-30号,104.77129698843049,31.481819556260234
10536521,云南天麻鸡,3.0,0.0,7.6,7.6,7.6,1 条点评,其他 , 游仙区 游仙路185号,104.78113710603768,31.511324003293037
10536552,金诺瑞(六里村店) 分店,4.0,0.0,8.2,8.3,8.3,124 条点评,面包甜点 , 六里村 华兴南街5号,104.77714717431844,31.490015114973687
10536558,清真餐厅,3.0,0.0,6.4,6.4,6.4,1 条点评,清真菜 , 高水 跃进路北段70-6号,104.74935099316053,31.495639403325967
10536562,富顺豆花,3.0,0.0,6.4,6.8,6.8,1 条点评,小吃面食 , 高水 高水中街16旁,104.74281512708359,31.50010409081259
10536567,德华开元米粉,3.0,0.0,6.9,6.9,6.9,1 条点评,小吃面食 , 高水 高水南街9-21号,104.74946038072079,31.495860756060996
10536576,棒擀面,3.0,0.0,7.2,7.5,7.5,2 条点评,小吃面食 , 高水 宇虹北街12-2号,116.76107078853875,42.10283040262841
10536579,爱达乐(南河店) 分店,4.0,0.0,8.7,8.7,8.6,126 条点评,面包甜点 , 沈家坝 南河路口17-2号,119.48627105131655,31.37204932798616
10536582,重庆邮亭鲫鱼·耗儿鱼,3.0,0.0,7.2,7.2,7.2,1 条点评,火锅 , 高水 高水南街69对面,104.74211600015941,31.494892910014375
10536593,牛王庙怪味面,3.0,0.0,7.0,6.7,7.1,2 条点评,小吃面食 , 高水 高水中街18-29号,104.74142220827169,31.499602195921835
10536598,眼哥面馆,3.0,0.0,6.9,6.6,6.6,2 条点评,小吃面食 , 高水 跃进路北段68-22号,104.74937148261091,31.494969829869625
10536601,冯老三烧菜馆,3.0,0.0,7.3,7.3,7.3,5 条点评,快餐简餐 , 高水 飞虹路30附近,104.74749487928189,31.501304875242283
10536604,鑫龙自助鲜鱼庄,3.0,0.0,7.2,6.8,7.5,1 条点评,自助餐 , 六里村 六里村,122.33586601470805,40.38211072514845
10536619,爱达乐(星河店),4.0,0.0,8.2,8.3,8.4,90 条点评,面包甜点 , 六里村 跃进路北段108号附1号,104.74377100229879,31.507783071821272
10536624,爱达乐(桃源店) 分店,4.0,0.0,8.4,8.4,8.3,89 条点评,面包甜点 , 高水 临园路中段133-1号峻峰大厦一楼,104.74014955370313,31.468024839704917
10536626,爱达乐(成绵店) 分店,4.0,0.0,8.5,8.4,8.3,120 条点评,面包甜点 , 涪城区 成绵路83号,104.75526963441988,31.471255703381924
10536629,好吃嘴韩式烧烤盘,3.0,0.0,7.7,7.2,7.2,1 条点评,烧烤 , 五里堆 五里堆南路5-14号,111.73200630821448,25.756298676671946
10536632,江油肥肠中餐馆,3.0,0.0,7.2,6.8,6.8,1 条点评,小吃面食 , 圣水 圣水南街33号,104.74123940130379,31.508527336801432
10536635,龙云杂酱面馆,3.0,0.0,7.4,7.4,7.4,1 条点评,小吃面食 , 沈家坝 李杜祠巷,104.77310025409767,31.473560926660088
10536650,飘香元一小火锅,3.0,0.0,7.0,7.0,7.0,1 条点评,火锅 , 开元场 开元路28-8号,104.76670441857854,31.47267980200037
10536658,江油肥肠馆,3.0,0.0,7.7,7.2,6.8,1 条点评,川菜 , 高水 高水南街61号,104.7425510001111,31.49494090999446
10536665,老幺秘方擀面皮直营,3.0,0.0,7.1,7.1,7.1,1 条点评,小吃面食 , 人民公园 临园路东段41-43号,104.75825190630617,31.468981111173402
10536668,王胖子特色面馆,3.0,0.0,7.5,7.0,7.0,2 条点评,小吃面食 , 铁牛广场 涪城路47号,104.75748435994284,31.47159586078549
10536675,牧羊人烤羊腿,3.0,0.0,7.3,7.0,7.0,5 条点评,烧烤 , 开元场 芙蓉溪路18-3号,104.76988609093212,31.47350474393129
10536681,和顺小酒馆,3.0,0.0,7.1,7.0,7.1,5 条点评,酒吧 , 步行街 顺河前街9-8号,104.76397326799756,31.4668799551466
10536684,上海海鲜馄饨,3.0,0.0,7.3,7.1,7.3,1 条点评,小吃面食 , 步行街 翠花街4-29号,104.76083921931058,31.46566903277569
10536690,三和大众冒菜,3.0,0.0,6.9,6.9,6.9,1 条点评,快餐简餐 , 开元场 开元路15-1号,104.7672647528099,31.474489611960973
10536695,申家老店串串,3.0,0.0,7.6,7.2,7.6,4 条点评,小吃面食 , 东方红大桥 成绵路1巷18-1号,104.7548618056813,31.472359790887413
10536696,阿里郎无烟烧烤,3.0,0.0,7.2,6.8,6.7,18 条点评,烧烤 , 开元场 绿水巷49对面,104.76403533372184,31.473877428111873
10536697,茶甜甜,3.0,0.0,7.1,6.9,7.1,3 条点评,面包甜点 , 步行街 新世界百货1楼,104.74890497549178,31.470256903819624
10536701,金诺瑞(涪城店) 分店,4.0,0.0,8.4,8.4,8.5,40 条点评,面包甜点 , 铁牛广场 涪城路99号,104.75730999974165,31.47075490545032
10536720,蜀香苑,3.0,0.0,6.4,6.4,6.4,2 条点评,川菜 , 西科大 青义路,121.52972465401899,32.0112081697474
10536724,馄饨大王,3.0,0.0,6.8,6.8,6.8,1 条点评,小吃面食 , 新世界百货 富乐路5-16号,104.75009915319266,31.471923316230733
10536736,柴米油盐,3.0,0.0,7.2,7.2,7.2,1 条点评,湘菜 , 桃园路 涪华路23号,104.74089681632805,31.470597173069446
10536739,一点味犹可涮吧(绵阳新世界店),3.0,0.0,7.2,7.6,7.4,52 条点评,火锅 , 新世界百货 临园路东段72号新世界百货5楼,104.74890497549178,31.470256903819624
10536750,眼哥面馆,3.0,0.0,6.8,6.7,6.8,3 条点评,小吃面食 , 新世界百货 富乐路7-5号,104.75011666296366,31.47147155455698
10536759,怪味抄手,3.0,0.0,7.3,6.9,6.9,2 条点评,小吃面食 , 新世界百货 成绵路3-5号,104.75145939703995,31.473109533689627
10536766,幸福滋味,3.0,0.0,7.0,7.0,7.0,1 条点评,面包甜点 , 凯德广场 剑门路东段13号,104.74305682067258,31.471751481004347
10536768,南山大盘鸡,3.0,0.0,7.8,7.7,7.6,7 条点评,新疆菜 , 南山 南塔路1段,130.28176460827774,47.29882093826236
10536775,星期八,3.0,0.0,7.2,7.2,7.2,3 条点评,烧烤 , 南湖 六一堂路669号,120.84453542647287,30.71635792123517
10536779,百味鲜,3.0,0.0,7.0,7.0,7.0,1 条点评,江浙菜 , 南湖 六一堂路669-7号,120.84453542647287,30.71635792123517
10536785,滋味面馆,3.0,0.0,7.5,7.4,7.5,2 条点评,小吃面食 , 南湖 南湖街,120.84453542647287,30.71635792123517
10536787,爱达乐(汉城店) 分店,4.0,0.0,8.4,8.4,8.5,78 条点评,面包甜点 , 沿江路 汉城社区居委会综合楼,104.15089724834418,30.811499173447103
10536793,弯弯肥肠馆,3.0,0.0,7.5,6.8,6.7,5 条点评,川菜 , 南湖 南湖街,120.84453542647287,30.71635792123517
10536812,野火烧烤庄,3.0,0.0,6.8,6.9,6.8,2 条点评,烧烤 , 南河 体运村路80-7号,104.76691479723743,31.455786812411784
10536817,老巷子马家巷鲜兔火锅,3.0,0.0,7.1,7.0,7.0,3 条点评,火锅 , 南河 文昌街5-7号,110.6379786023976,36.761526002638476
10536838,朋朋中江面,3.0,0.0,7.4,6.9,7.1,3 条点评,小吃面食 , 马家巷 孙家巷4-18号,104.76168304798122,31.46274890257016
10536845,三木食神涮烤烤鱼,3.0,0.0,6.5,6.6,6.7,2 条点评,川菜 , 南河 体运村路18-2号,104.76246689858957,31.45592024639748
10536854,回头香烧烤,3.0,0.0,7.0,6.9,6.9,1 条点评,烧烤 , 南河 文昌街2-6号,126.67666241419418,45.75828378168421
10536865,富顺豆花饭,3.0,0.0,6.8,6.3,6.6,2 条点评,川菜 , 南河 文兴街29号,126.62840011614449,45.731631363742856
10536876,茶尼斯堤(马家巷店),4.0,0.0,8.4,8.3,8.2,61 条点评,面包甜点 , 马家巷 马家巷11-7号,104.76089387491272,31.462425383879108
10536882,百林川菜,3.0,0.0,7.3,6.6,6.8,1 条点评,川菜 , 步行街 翠花街4-25号,104.76083588839377,31.465659016339504
10536884,老刘片片鱼,3.0,0.0,7.2,6.9,6.8,5 条点评,火锅 , 南湖 经开区六一堂路586-3号（南湖公园入口附近）,120.84453542647287,30.71635792123517
10536886,罗氏小火锅,3.0,0.0,7.4,7.4,7.4,1 条点评,火锅 , 南山 红星村6队,100.03726317860959,39.22004577374708
10536899,金诺瑞(索桥店) 分店,4.0,0.0,8.2,8.2,8.0,59 条点评,面包甜点 , 南河 南河路28号,117.24345405835597,29.297710210043547
10536905,酷·贝拉,3.0,0.0,7.2,7.2,7.2,1 条点评,面包甜点 , 马家巷 马家巷8-3号,104.76092162356994,31.46329440340786
10536924,老字号豆花面,3.0,0.0,7.4,6.6,7.0,2 条点评,小吃面食 , 老茶树 御安街46-2号,104.74125967875406,31.460331469651578
10536941,康麦糕点世界,3.0,0.0,7.8,7.6,7.8,3 条点评,面包甜点 , 御营坝 长虹大道南段118号,104.7534724996878,31.452266309563765
10536956,兴隆特色面馆,3.0,0.0,7.0,6.9,6.9,1 条点评,小吃面食 , 涪城区 剑南路西段114-5号,104.73422053072701,31.476707749692785
10536959,巧手厨房,3.0,0.0,7.0,6.8,6.7,8 条点评,川菜 , 园艺山 园艺街20号,113.94478821891745,22.604074228571392
10536964,苤记鲜兔火锅(高新区店),3.0,0.0,7.2,6.7,6.7,4 条点评,火锅 , 涪城区 绵阳市高新区双碑中街58号,104.6952272444721,31.47408560679802
10536977,明玥轩餐厅,3.0,0.0,7.0,7.0,7.0,1 条点评,川菜 , 园艺山 创业大道,104.71717350114896,31.489747957825198
10536981,重庆老麻抄手,3.0,0.0,7.7,7.6,7.6,2 条点评,小吃面食 , 花园小区 文竹东街4-14号,104.73351203267977,31.467185589243186
10536984,鑫缘烧烤,3.0,0.0,7.8,7.4,7.5,32 条点评,烧烤 , 高水 高水路100号,104.74239793244543,31.49921778381835
10536994,袁氏蹄花中餐,3.0,0.0,7.1,7.0,6.8,2 条点评,川菜 , 高水 高水中街18号B1楼-4室,104.7392742421193,31.498953596221188
10537006,江油肥肠王,3.0,0.0,6.9,7.1,6.9,3 条点评,川菜 , 双碑 普明北路东段552号,104.69794402216492,31.475923327620905
10537009,九五牛肉馆,3.0,0.0,7.0,6.8,7.0,1 条点评,火锅 , 普明 火炬西街北段170-1号,104.68426597421555,31.479082227002337
10537016,香辣手抓虾,3.0,0.0,7.3,6.8,7.3,1 条点评,川菜 , 老茶树 滨河南路东段48号,104.74377962333676,31.463021553054837
10537031,山里人饭店,3.0,0.0,6.8,6.8,6.8,1 条点评,小吃面食 , 花园小区 临园路西段7号,104.73534266522431,31.466495563249822
10537033,凤姐鲜鱼庄,3.0,0.0,7.0,6.8,7.0,2 条点评,川菜 , 双碑 双碑东街北段鹏业小区89号,104.70344874041477,31.47139768911602
10537034,谭烧烤,3.0,0.0,7.6,7.2,7.2,1 条点评,烧烤 , 安昌路 安昌西路29-24号,104.73971023290196,31.464977277355388
10537042,食椒八方,3.0,0.0,7.7,7.2,7.2,2 条点评,川菜 , 双碑 双碑东街21-13号,104.70027666376066,31.467508151004797
10537047,爱达乐(南街店) 分店,4.0,0.0,8.4,8.4,8.4,66 条点评,面包甜点 , 普明 一环路南段226号1楼1号,104.76694852860935,31.460367923616946
10537052,世亿糕点,3.0,0.0,7.0,6.7,6.7,4 条点评,面包甜点 , 园艺山 元兴西街2号西南财经大学天府学院,104.69703699500675,31.498526469426405
10537056,金诺瑞 分店,4.0,0.0,8.0,8.1,8.2,4 条点评,面包甜点 , 普明 万兴街11号,104.67983514696557,31.47897160494743
10537073,江油肥肠富顺豆花,3.0,0.0,7.5,6.4,7.2,1 条点评,小吃面食 , 涪城万达广场 荷花东街11号,104.72147036589485,31.460380476288343
10537087,77缘,3.0,0.0,7.3,7.0,6.7,6 条点评,其他 , 高新区 飞云大道东段16号,104.70203433054184,31.448375529599282
10537108,金诺瑞(梅花西街店) 分店,4.0,0.0,8.2,8.2,8.2,2 条点评,面包甜点 , 涪城区 梅花西街35号,104.7157598198018,31.46477605358154
10537112,华香园蛋糕,3.0,0.0,7.3,7.5,7.5,6 条点评,面包甜点 , 花园小区 新华西街55号,104.73026540475308,31.46297293444786
10537131,姜记烧烤,3.0,0.0,7.1,6.9,6.9,4 条点评,烧烤 , 花荄镇 中心街北段,104.56729490447191,31.547588080701427
10537144,九斗碗,3.0,0.0,7.0,7.0,7.0,2 条点评,川菜 , 布鲁斯国际 绵兴东路110号,104.6705190001827,31.47310490590793
10537186,四海香炖品,3.0,0.0,7.7,7.7,7.2,1 条点评,快餐简餐 , 桃园路 剑门路东段附45-7号,104.73792119459745,31.4698385351568
10537191,三鲜鳝鱼庄,3.0,0.0,7.6,7.6,7.6,1 条点评,川菜 , 安县中心城区 文胜路西段,104.5615656314039,31.536552012815093
10537202,乡村铁板烧,3.0,0.0,6.4,6.4,6.4,1 条点评,日本料理 , 五里堆 晶蓝尚城附近,104.77293890495349,31.48324150359892
10537204,牛车水生态鱼,3.0,0.0,7.3,7.1,6.8,7 条点评,川菜 , 园艺山 科技路89号,104.72480307933685,31.498301936493466
10537206,一鸣土鸡庄,3.0,0.0,7.2,7.0,7.0,1 条点评,火锅 , 高新区 108国道,104.03876626306119,30.592620398051746
10537241,高老庄饭店,3.0,0.0,6.8,6.8,6.4,1 条点评,快餐简餐 , 安县中心城区 花兴路,104.5599127735198,31.550229980749364
10537243,马舒娃清真,3.0,0.0,6.9,7.1,6.9,6 条点评,清真菜 , 安县中心城区 好医生大道北段,104.55648597155864,31.550145356352118
10537245,一代天椒火锅王,3.0,0.0,7.2,7.2,7.2,4 条点评,火锅 , 塘汛 群中街,104.80136827202132,31.403646158796782
10537248,玉林串串香全国连锁,3.0,0.0,6.8,7.0,6.6,8 条点评,火锅 , 涪城万达广场 花园南街32号,104.72228704867126,31.459823665765317
10537256,曾氏肥肠馆,3.0,0.0,7.7,7.2,7.4,6 条点评,川菜 , 塘汛 绵州大道中段,104.78891495493983,31.41817403465394
10537264,桃园休闲酒家,3.0,0.0,7.2,6.8,7.2,1 条点评,粤菜 , 五一广场 总工会附近,114.78226779860954,37.7594603687025
10537267,童南渔夫烤鱼庄,3.0,0.0,7.1,6.9,6.9,1 条点评,川菜 , 开元场 滨江东路南段3-4号,104.76397533410022,31.473597291653594
10537270,老王记烧烤,3.0,0.0,7.3,7.1,7.3,1 条点评,烧烤 , 御营坝 御苑街3-15号,104.74562938619543,31.460298778242215
10537280,金诺瑞(花园东街店) 分店,4.0,0.0,8.0,8.2,8.1,73 条点评,面包甜点 , 涪城区 花园东街,104.72650246225994,31.462435468222637
10537281,鼎上九味老火锅,3.0,0.0,7.5,7.5,7.5,4 条点评,火锅 , 跃进路 西山东路77号,104.7480634392968,31.484574450170847
10537284,凯悦火锅,4.0,0.0,7.7,7.6,7.5,25 条点评,火锅 , 跃进路 绵阳市涪城区西山东路88号,104.74896988345469,31.484406560663583
10537288,八医院职工食堂,3.0,0.0,7.4,7.4,7.4,1 条点评,快餐简餐 , 沿江路 沿江西街30-8号,110.759169510582,19.62226913995976
10537392,金诺瑞(塘汛店) 分店,4.0,0.0,8.2,8.2,8.3,15 条点评,面包甜点 , 塘汛 塘汛镇群丰街三汇路口处,104.78833408544453,31.404343696502817
10537406,袁记串串香(西蜀名居店),3.0,0.0,7.1,6.9,7.0,9 条点评,火锅 , 五一广场 四川省绵阳市涪城区城郊乡平政六组,104.75255314508311,31.48802890659129
10538236,刘氏串串,3.0,0.0,7.5,7.3,7.0,2 条点评,火锅 , 东方红大桥 成绵路1巷12号,104.75457503994606,31.47216066015547
10660277,火焰山特色烧烤,3.0,0.0,7.3,7.1,7.2,12 条点评,烧烤 , 芙蓉汉城 芙蓉镇仙人路博物馆仙人桥旁,104.77815529767702,31.481635925210814
10661094,绝城芋儿鸡,3.0,0.0,7.6,6.9,6.2,3 条点评,火锅 , 凯德广场 御营坝御南街10-1号,104.75296446749816,31.45264106318084
11559803,蒋记豆花(警钟街店),3.0,0.0,7.3,7.3,7.1,12 条点评,川菜 , 人民公园 警钟街5号,104.7580405053756,31.46502910203069
11564121,西草坪露天火锅,3.0,0.0,7.3,7.5,7.3,5 条点评,火锅 , 江油市其他 诗城路西段,104.73247560191797,31.78970980411851
11567530,鲜芋哆哆,4.0,0.0,8.1,7.9,7.9,190 条点评,面包甜点 , 马家巷 警钟街马家巷中段,104.76104351913612,31.462206035371384
11569411,阿歪梭边鱼,3.0,0.0,6.0,6.0,6.0,1 条点评,火锅 , 御营坝 长虹大道南段,104.74694405181776,31.460787789031052
11571696,紫海原香渡假村,3.0,0.0,7.1,7.7,7.4,3 条点评,川菜 , 涪城区 杨家镇团阳市村(杨家镇牌坊)靠近原香国际香草园,104.72471996541616,31.35086630179229
11572082,加米尔,3.0,0.0,7.0,7.0,6.7,2 条点评,火锅 , 步行街 警钟街,104.75488769018823,31.4707878758284
12593951,果果茶屋语,3.0,0.0,7.3,7.3,7.3,2 条点评,咖啡厅 , 安县其他 茅坝街87号,104.4647080208763,31.622039194230556
12595985,三喜乡村酒店,3.0,0.0,7.2,7.2,7.1,3 条点评,川菜 , 西平镇 西平镇西蜀大道,104.27187790742654,30.65008020050304
12596989,三顾冒菜 分店,3.0,0.0,7.0,7.0,6.9,2 条点评,川菜 , 高水 长虹世纪城,104.74749487928189,31.501304875242283
13259507,好客来竹林山庄,3.0,0.0,7.3,7.1,7.3,4 条点评,快餐简餐 , 晓坝镇 B35县道,104.29183159132967,31.650396591146603
13261067,通宝茶旅店,3.0,0.0,7.2,7.2,7.2,1 条点评,茶馆 , 通口镇 105省道,104.5672744284961,31.850594463171635
13266269,雅云阁休闲吧,3.0,0.0,7.6,7.6,7.6,1 条点评,咖啡厅 , 三台县中心城区 清真巷,105.09293442198955,31.093073009337164
13362551,红圆会所,3.0,0.0,7.3,7.3,7.3,9 条点评,粤菜 , 普明 普明北路东段卢卡美郡湖畔(外国语学校旁),104.6880192653143,31.474282467364514
13362625,湘牌台球桌,3.0,0.0,7.4,7.4,7.4,1 条点评,湘菜 , 涪城区 剑门路西段280号,104.71181500008697,31.466423904682216
13362650,四川生殖卫生学院中专部,3.0,0.0,7.7,7.7,7.7,1 条点评,川菜 , 双碑 绵兴东路50号,104.70217006270778,31.46967974049488
13363900,茉茜娅,3.0,0.0,7.2,7.7,7.7,1 条点评,面包甜点 , 普明 金域丽江,104.70106715284672,31.46383656782233
13364174,旗帜酒吧,3.0,0.0,6.7,6.8,6.7,6 条点评,酒吧 , 安昌路 安昌路55-33号,104.74729600073013,31.4663937053101
13364861,桃花岛酒店银塔西餐厅,4.0,0.0,8.2,9.1,8.4,103 条点评,自助餐 , 南山 涪城区三江西路北段1号富临桃花岛,104.78748513104266,31.46021529328476
13366086,半岛地图红酒·雪茄坊,3.0,0.0,7.4,7.4,7.4,4 条点评,酒吧 , 南河 五四路1之4-6号,118.11207463936786,24.577601653069806
13366304,普奇诺,3.0,0.0,7.1,7.2,7.1,2 条点评,酒吧 , 南河 青年广场龙汇花园8号楼1层,104.77187344005931,31.461945690767696
13366585,芭芭拉,3.0,0.0,7.5,7.4,7.5,17 条点评,酒吧 , 人民公园 临园路东段54号临园商厦西裙楼2层,104.75660584679817,31.469638851034617
13669053,百度自助烧,3.0,0.0,6.4,6.4,6.4,1 条点评,烧烤 , 江油市中心城区 中垻剧场,104.93314929992522,31.952426668806112
13671983,东豪千岛湖大鲫鱼特色 中餐馆,3.0,0.0,7.5,7.4,7.4,13 条点评,小吃面食 , 南湖 南湖街138号板桥小区8栋-8号,120.84453542647287,30.71635792123517
13672110,重庆大龙火锅(大西门店),3.0,0.0,7.1,7.1,7.2,4 条点评,火锅 , 马家巷 大西门油房街82号1楼,105.59300803893048,30.508896575180835
13672282,四海香(万达店),4.0,0.0,8.2,9.0,8.7,61 条点评,川菜 , 涪城万达广场 花园路9号,104.72713966179887,31.458834802512445
13672297,火凤凰美蛙火锅(安昌店),3.0,0.0,6.7,6.7,6.7,1 条点评,火锅 , 涪城区 四川省绵阳市安昌西路29号,104.74013820181642,31.46509425627264
13672405,粤品粥道馆,3.0,0.0,6.9,6.9,6.9,2 条点评,粤菜 , 涪城万达广场 花园路万达广场3楼,104.72671611075091,31.459551810130254
13672610,三之首干锅食府(高新店),4.0,0.0,8.1,8.1,8.1,87 条点评,川菜 , 双碑 西都生活广场DA区,104.69624998865116,31.474446581884017
13672657,柴火家宴坊(永兴店) 分店,3.0,0.0,7.4,7.6,7.4,4 条点评,川菜 , 高新区 高新区永兴镇兴业南路华兴名城,104.64351371414493,31.45961663801873
13673185,柴火家宴坊(溏汛店) 分店,2.0,0.0,5.9,5.9,5.8,2 条点评,川菜 , 塘汛 高新区溏汛镇绵州大道港华加气站旁,117.54866848877181,30.698346160443695
13687516,巴适客茶餐厅,3.0,0.0,7.0,6.9,6.9,1 条点评,粤菜 , 人民公园 临园路东段41-43号绵阳商厦2楼,104.75825190630617,31.468981111173402
13702294,雍氏冒菜,3.0,0.0,7.1,6.8,7.0,6 条点评,快餐简餐 , 高水 高水南街,104.74749487928189,31.501304875242283
13716409,缘源火锅店,3.0,0.0,7.6,7.6,7.6,1 条点评,火锅 , 三台县中心城区 樟树路武引局旁,105.10626236614608,31.109819856584505
13724710,一乐寿司,3.0,0.0,6.5,6.5,6.5,8 条点评,日本料理 , 三台县中心城区 九倒拐,105.0929568760341,31.095663432357878
13726383,划得来鲜米粉 招收学徒,4.0,0.0,7.7,7.5,7.7,8 条点评,快餐简餐 , 塘汛 塘汛镇中心村友谊街钟氏家电对面11中附近,104.80870081381437,31.40328841544061
13726559,张小糖手工甜品,3.0,0.0,7.6,7.3,7.6,4 条点评,面包甜点 , 南河 卫生巷内,114.47181863710941,36.61493100425059
13727565,土鸡米线,4.0,0.0,8.4,7.9,8.3,127 条点评,快餐简餐 , 涪城万达广场 金菊街杨肥肠旁,104.72683031502531,31.459082603005047
13736210,滋滋中韩烤肉馆,3.0,0.0,6.9,6.9,7.0,6 条点评,韩国料理 , 凯德广场 长虹大道111号,104.74443900024212,31.470839905531832
13740818,御鲜坊乌鱼庄(滨江店) 分店,4.0,0.0,8.5,7.9,8.3,26 条点评,川菜 , 凤凰城 滨江路愿望帝景5幢12号,104.75459376462535,31.48075720369292
13744265,杨肥肠休闲美食广场,3.0,0.0,7.4,7.5,7.5,11 条点评,快餐简餐 , 人民公园 临园路宇隆春天城2楼,104.7542011063039,31.467296441196666
13747097,圣多美汉堡炸鸡(新西街店),4.0,0.0,8.3,8.1,8.3,136 条点评,快餐简餐 , 三台县中心城区 新西街老县政府黄桷树旁一楼,105.09600056506811,31.094293822733455
13751366,豆花鱼,3.0,0.0,7.0,6.7,6.9,2 条点评,火锅 , 普明 双碑西街,104.6880192653143,31.474282467364514
13769081,天英庄火锅(紫阳店),3.0,0.0,7.2,7.2,7.2,1 条点评,火锅 , 沈家坝 紫阳村2社,104.77310025409767,31.473560926660088
13775987,苗家酸菜鸡(南河店),3.0,0.0,7.6,7.5,7.6,9 条点评,火锅 , 南河 文兴街12号,126.62908821816514,45.73177606052071
13781539,渝和记面庄,3.0,0.0,7.1,7.1,7.1,2 条点评,小吃面食 , 五里堆 临园路东段五里堆广场,104.76505102889756,31.486743566677983
13785144,数签签手提串串(双碑店),4.0,0.0,8.1,7.8,7.9,82 条点评,小吃面食 , 双碑 高新区双碑东街28号,104.70197861493918,31.46654010915205
13786027,华莱士(秀水店),3.0,0.0,7.6,7.6,7.5,10 条点评,快餐简餐 , 秀水镇 西园干道北段秀水桥头,104.34910187604996,31.512403607051333
13786050,爱达乐(开元店),4.0,0.0,8.4,8.3,8.3,192 条点评,面包甜点 , 涪城区 开元路18号附5号,104.69538900863341,31.474354379711567
13787001,廖记牛肉面,3.0,0.0,7.7,7.1,7.4,2 条点评,小吃面食 , 天骄摩尔 图书馆对面天桥旁,116.9831571471224,36.77807769499059
13787911,布朗&Tea,3.0,0.0,7.0,7.0,7.2,2 条点评,咖啡厅 , 火炬广场 高新区磨家镇顺祥街3--1号,104.60981907575417,31.454518008413928
13788799,犁园食尚川菜坊(六里村店),4.0,0.0,8.1,8.2,7.9,34 条点评,快餐简餐 , 六里村 游仙路24号,104.77601976946274,31.49260919686724
13796287,欧佳盛世牛排馆,4.0,0.0,7.9,7.8,7.1,8 条点评,西餐 , 中坝镇 诗仙路东段,104.7518430705097,31.783882662271527
13796883,杨肥肠小火锅 分店,3.0,0.0,7.0,6.9,7.0,8 条点评,火锅 , 花荄镇 花荄文苑路东段,104.55626686226849,31.545496870218866
13802549,众里寻她.千百度自助烤肉,3.0,0.0,7.4,7.4,7.5,336 条点评,自助餐 , 安昌路 安昌路19号附15号2楼,104.75383685240266,31.465559062696304
13805604,满堂红(鲜驴肉馆),3.0,0.0,7.1,7.1,7.1,2 条点评,川菜 , 双碑 双碑东街28号,104.70197861493918,31.46654010915205
13822086,妖舅豆花面,3.0,0.0,7.0,6.7,7.0,3 条点评,小吃面食 , 游仙区 治平路,104.77225858315688,31.481524814790554
13824328,绵阳美熙酒吧,3.0,0.0,7.7,7.7,7.7,2 条点评,酒吧 , 涪城区 绵阳市涪城区铁牛广场 海赋外滩商3-2-16号,104.76041200317617,31.470663046861738
13832389,杨肥肠小火锅 分店,3.0,0.0,7.4,7.1,7.2,3 条点评,火锅 , 高水 高水中街,104.74749487928189,31.501304875242283
13833909,杨程猪手,4.0,0.0,7.9,7.8,8.0,29 条点评,小吃面食 , 沿江路 沿江东街4-10号,104.74632069606506,31.467560052573873
13851650,龙缘酸汤乌鱼府,3.0,0.0,8.1,7.9,8.0,23 条点评,火锅 , 南湖 嘉来板桥7栋1-3号,120.84453542647287,30.71635792123517
13858029,川罗肥肠,4.0,0.0,8.2,7.0,7.5,21 条点评,小吃面食 , 三合镇 三合镇,129.74920169278312,42.48505377961571
13864896,满记甜品(新世界店),4.0,0.0,7.7,7.5,7.6,32 条点评,面包甜点 , 新世界百货 临园路东段72号绵阳新世界百货1楼,104.74890497549178,31.470256903819624
13872344,纳奇披萨屋(铁牛街店),3.0,0.0,7.4,7.0,7.4,2 条点评,西餐 , 铁牛广场 河堤上大铁牛右边100米海赋外滩2-2-39,104.75981958057369,31.470841050859786
13876086,芭夯兔,3.0,0.0,7.2,6.9,6.9,11 条点评,火锅 , 江油市中心城区 诗仙路中段文风街,104.74668331505028,31.783756169525798
13876526,苏稽发跷脚牛肉(高水店),4.0,0.0,8.7,8.1,8.6,38 条点评,火锅 , 高水 跃进路北段83号长虹世纪城,104.74579767025816,31.504088145028796
13883387,缘食谷餐饮城,3.0,0.0,7.2,7.0,7.2,13 条点评,快餐简餐 , 御营坝 长虹大道南段41号阳光新城后大门,104.75157348183971,31.457226424372088
13891530,重庆鸡煲,3.0,0.0,7.5,7.0,7.3,5 条点评,火锅 , 西科大 西南科技大学青羊西街35号,104.70712298961168,31.547206921679038
13892283,莽串串,3.0,0.0,7.7,7.6,7.6,5 条点评,火锅 , 园艺山 科创园区园艺山树高卡地亚二栋,104.72924553964319,31.495035827664147
13892699,虾皇,4.0,0.0,7.9,7.6,7.5,10 条点评,川菜 , 芙蓉汉城 仙人路,104.77815529767702,31.481635925210814
13894349,琥珀咖啡馆,3.0,0.0,7.0,7.0,7.0,3 条点评,咖啡厅 , 南河 南河东街2-23号巡警一大队旁,104.76767747658153,31.45877699463873
13900975,华姐江湖川菜馆,3.0,0.0,7.1,7.1,7.1,1 条点评,川菜 , 沈家坝 三星路西南科技大学城市学院,104.80307992220445,31.452348259199756
13920310,京川生态园,4.0,0.0,8.2,8.5,8.1,28 条点评,川菜 , 六里村 涪江二桥科学城隧道口,104.75558167251674,31.49421819237957
13932443,成都锦里小吃逗逗饼,3.0,0.0,7.3,7.1,7.2,19 条点评,小吃面食 , 步行街 马家巷,104.75488769018823,31.4707878758284
13934425,周记黑鸭(女人街店),4.0,0.0,8.7,8.6,8.7,238 条点评,小吃面食 , 江油市中心城区 江油市解放路中段131号,104.7485800643775,31.78259804087072
14036044,品阁山庄,4.0,0.0,8.1,7.9,7.9,24 条点评,川菜 , 园艺山 莲花寺路 半山南湾对面,104.71717350114896,31.489747957825198
14036986,付记鲜鱼庄,3.0,0.0,8.0,7.0,7.6,7 条点评,川菜 , 六里村 仙人路二段6号,104.7837040733206,31.48746951940206
14100048,四川绵阳旅游景点,3.0,0.0,6.8,7.1,7.1,1 条点评,川菜 , 含增长钢街道 江油,104.61112161874364,31.77675354344684
14155889,豪大大香鸡排,3.0,0.0,7.1,6.8,7.3,5 条点评,小吃面食 , 普明 中环时代2楼(六月雪对面),112.48862521955009,23.061513607985873
14160253,蜗牛酒吧,3.0,0.0,7.4,7.6,7.4,4 条点评,酒吧 , 长虹国际城 长虹国际城,104.75058065123415,31.47507425141395
14170196,蜀江烤鱼(绵阳店),3.0,0.0,6.4,7.2,6.8,54 条点评,川菜 , 涪城万达广场 花园路9号万达广场3楼,104.72671611075091,31.459551810130254
14172717,柏隆鲜酿啤酒花园,4.0,0.0,8.2,9.1,8.6,68 条点评,西餐 , 铁牛广场 海赋外滩营销中心2楼（泗水巷13号）,104.75982932718847,31.470051034620358
14173261,北平楼老北京涮羊肉,4.0,0.0,8.3,7.7,7.8,37 条点评,火锅 , 涪城区 安昌西路33号（三汇立交桥靠安昌河堤旁）,104.73927303210178,31.464781190838426
14177495,仙龙潭养生汤(高新店),4.0,0.0,8.4,8.6,8.4,51 条点评,川菜 , 普明 高新区火炬西街北段东,104.6880192653143,31.474282467364514
14182290,欧佳盛世牛排,3.0,0.0,7.1,7.0,6.9,2 条点评,西餐 , 中坝镇 摩尔玛2楼,104.75071038990572,31.78349543072142
14188225,跷脚牛肉焖锅,3.0,0.0,7.1,7.1,7.0,3 条点评,火锅 , 五一广场 跃进北路38号,104.7498623068602,31.490119443281138
14188226,TORO手工巧克力(沃尔玛店),3.0,0.0,6.9,6.9,6.9,1 条点评,面包甜点 , 凯德广场 临园东路74号嘉信茂广场1楼,104.74738001205804,31.469599267363183
14191112,福华斋(华尔街店),3.0,0.0,7.1,6.9,7.1,3 条点评,面包甜点 , 跃进路 西山东路39号,104.74692813564074,31.484618728866927
14192474,自贡牛肉汤锅分店,3.0,0.0,6.7,6.9,6.9,2 条点评,火锅 , 云溪镇 弥江路老稽征所旁,105.4087548665408,31.25672636984184
14198176,黑人小火锅,3.0,0.0,8.1,8.0,8.1,28 条点评,火锅 , 六里村 六里村华兴上街18号同立紫郡大门旁,104.77938502042862,31.496232620894034
14198233,众里寻她千百度烤肉(临园店),3.0,0.0,6.4,6.4,6.4,4 条点评,烧烤 , 步行街 临园路顺河街顺河公寓10号,104.76186659694947,31.467273334406606
14334902,森林雨火锅城(禹龙南街店),3.0,0.0,7.1,6.8,7.1,1 条点评,火锅 , 北川羌族自治县其他 禹龙南街,104.46832697487754,31.83615070097086
14683818,羊角花,3.0,0.0,7.3,7.3,7.3,3 条点评,酒吧 , 安县其他 滨河中路,104.46808733481495,31.611701361973495
14689363,回头米粉店,3.0,0.0,7.4,7.1,7.4,6 条点评,小吃面食 , 北坝镇 梓州干道会仙花园6号门面,105.1010666515171,31.10542790316927
14693853,茶与布朗(中坝剧场店),4.0,0.0,7.8,7.8,7.8,4 条点评,咖啡厅 , 中坝镇 涪江路375号,104.75366922859449,31.784160153695442
14700714,西蜀大宅门(游仙店),5.0,0.0,9.2,9.1,9.1,156 条点评,火锅 , 五里堆 绵阳市游仙区治平路香榭里二期门面,104.76505102889756,31.486743566677983
14700762,虾兵虾将,4.0,0.0,8.1,7.6,7.4,23 条点评,川菜 , 芙蓉汉城 芙蓉汉城3期河边49-11号,104.77715991768042,31.48034850881913
14701264,十三小厨(香榭丽店),4.0,0.0,8.2,8.4,8.3,55 条点评,川菜 , 五里堆 绵山路香榭里大道,104.76670835225836,31.4833417862034
14708531,越王楼小吃城,4.0,0.0,7.7,8.1,7.6,102 条点评,快餐简餐 , 开元场 建南路东段326号,121.46305032152506,31.66121861477312
14718748,暹罗港泰式海鲜火锅餐厅,4.0,0.0,8.3,8.8,8.6,137 条点评,火锅 , 铁牛广场 铁牛广场海赋外滩4一2一1号,104.75982932718847,31.470051034620358
14724812,大顺清真,4.0,0.0,7.7,7.6,7.7,4 条点评,清真菜 , 涪城区 荷花东街,104.72143890004945,31.45831965887973
14738232,阿芒迪娜烘焙馆,4.0,0.0,9.0,9.1,9.0,116 条点评,面包甜点 , 高水 长虹大道北段,104.74628902001616,31.491559421488525
14738241,三国炙涮烤(万达店),4.0,0.0,8.3,8.8,8.5,439 条点评,自助餐 , 涪城万达广场 花园路9号万达广场3楼3022-3023B室,104.72671611075091,31.459551810130254
14739032,榴芒先生,3.0,0.0,7.5,7.5,7.5,5 条点评,面包甜点 , 步行街 警钟街马家巷5号院内,104.76092460594423,31.463635758234982
14739076,川渝坝子量贩火锅,4.0,0.0,8.1,8.2,7.9,28 条点评,火锅 , 芙蓉汉城 一环路东段芙蓉汉城2期41栋,104.77741895305726,31.482319159916422
14748815,索美塞,4.0,0.0,7.8,7.8,7.8,56 条点评,西餐 , 江油市中心城区 沃尔玛旁,104.75386541851788,31.790463559492885
14875491,快尚品味,3.0,0.0,7.4,7.4,7.4,1 条点评,快餐简餐 , 人人乐/崇尚国际 快尚品味长虹大道中段110-112号,104.74518719620646,31.4723139285789
14876569,红鼎记自助火锅,3.0,0.0,7.7,7.9,7.7,95 条点评,自助餐 , 太平镇 江油市太平路中段太白新城,104.74828667180925,31.772809092502595
14892354,达嘉莱咖啡馆,4.0,0.0,8.4,8.7,8.3,148 条点评,咖啡厅 , 人民公园 安昌路18号爱喜嘉年华2楼,104.75459958833999,31.465900599146774
14911353,西南科技大学五食堂,3.0,0.0,6.9,6.9,6.9,1 条点评,快餐简餐 , 高水 西南科技大学,104.70234598775717,31.54051373039241
14959159,老鬼火锅,3.0,0.0,6.3,6.3,6.3,2 条点评,火锅 , 东方华尔街 实验,115.04857471063774,30.261750288003725
15001633,短尾巴玉兔王(绵阳总店),3.0,0.0,7.5,7.5,7.3,9 条点评,火锅 , 南河 红星街119-5号,104.76196713799706,31.455578359987317
15008255,眼哥面馆,3.0,0.0,6.9,6.7,6.7,1 条点评,小吃面食 , 沿江路 沿江西街11之3-4号,110.759169510582,19.62226913995976
15097624,锅巴凉粉油茶,3.0,0.0,7.1,6.9,7.1,3 条点评,小吃面食 , 马家巷 解放街18-2号,104.76321080245017,31.46173390110953
15109727,韩国KBAR酒水吧,3.0,0.0,7.0,7.0,7.0,1 条点评,韩国料理 , 铁牛广场 泗水巷58号海赋外滩3栋2楼21号,104.7606478182539,31.469405267259244
15115281,空盘子,3.0,0.0,7.1,7.1,6.5,2 条点评,川菜 , 凯德广场 临园路东段,104.74781245633054,31.470407279466674
15125770,德克士,3.0,0.0,6.8,6.9,7.0,2 条点评,快餐简餐 , 盐亭县其他 南街郁金香广场2楼,105.39655459224011,31.22833862695539
15491371,开心果购物(小岛店),3.0,0.0,7.3,7.2,7.0,3 条点评,其他 , 小岛 小岛花园,109.51931199667162,18.779883777938295
15492453,味千拉面(绵阳长虹国际城店) 分店,3.0,0.0,7.0,7.1,7.1,16 条点评,日本料理 , 东方华尔街 跃进路_4_号1楼A67室,2楼B8楼商铺,104.74913098915809,31.474045017633824
15492455,余妈妈(步行街店),3.0,0.0,7.2,7.2,7.2,3 条点评,小吃面食 , 人民公园 涪城路129号,104.75759599955501,31.46791490499072
15492476,爱达乐(富乐店) 分店,4.0,0.0,8.3,8.2,8.2,144 条点评,面包甜点 , 游仙区 东津路30号,104.78051816815147,31.46981815009866
15492495,富顺豆花餐厅(富乐路店),3.0,0.0,7.2,6.8,7.0,2 条点评,快餐简餐 , 新世界百货 富乐路5-23号,104.75009752097154,31.471612893731365
15492497,好又来串串香(富乐店),3.0,0.0,7.0,6.4,6.6,7 条点评,火锅 , 长虹国际城 成绵路1号,104.7504630001615,31.473051905953035
15493629,摩尔玛(诗仙店),5.0,0.0,9.3,9.3,9.3,416 条点评,其他 , 江油市中心城区 江油市诗仙路131号,104.75020895577006,31.783501953279096
15880606,豪客来(人人乐百货店),4.0,0.0,9.0,9.0,9.1,236 条点评,西餐 , 涪城区 长虹大道中段110号人人乐百货二楼,104.74518719620646,31.4723139285789
15929675,川江滋香老火锅,3.0,0.0,7.4,7.2,7.4,5 条点评,火锅 , 御营坝 长虹大道南段70号,104.751373159711,31.456464040616634
15947566,麻辣一坊自助火锅(长兴店),3.0,0.0,8.0,8.0,7.8,152 条点评,火锅 , 人民公园 安昌路30号都市经典2楼华西证券斜对面,104.75315710462326,31.466115048364685
15957845,T6火锅(富乐路店),3.0,0.0,7.9,7.8,7.7,7 条点评,火锅 , 长虹国际城 富乐路百姓医院2楼,104.75058065123415,31.47507425141395
15995470,一休小米辣,3.0,0.0,7.4,7.1,7.4,2 条点评,火锅 , 六里村 仙人路一段,104.76837771021809,31.493796051375803
15997299,丽宝鱼庄(高新区店),3.0,0.0,7.0,6.9,6.9,1 条点评,川菜 , 普明 高新区21世纪花园后门,104.6880192653143,31.474282467364514
16009174,可心DIY烘焙生活馆(绵阳店),4.0,0.0,8.0,8.1,8.4,73 条点评,面包甜点 , 人民公园 公园路1号兴达广场903,茂业百货,(好又多)后门佳鑫苑酒店处直升电梯9楼,104.70551897529307,31.50470125806144
16058905,金诺瑞(一环路南段店) 分店,4.0,0.0,8.1,8.1,8.1,4 条点评,面包甜点 , 芙蓉汉城 一环路南段221-30号,104.76649835178608,31.46017799781819
16061969,爱达乐(开元二店),3.0,0.0,7.2,7.2,7.2,5 条点评,面包甜点 , 跃进路 剑南路东段253-3号碧水公寓二期,104.76460527173741,31.474534969231605
16313992,金达莱韩式烤盘,3.0,0.0,7.4,7.4,7.5,9 条点评,韩国料理 , 南河 涪城路64-11号,104.75685083896498,31.461329520396866
16334475,精武鸭头,4.0,0.0,7.8,7.7,7.8,10 条点评,小吃面食 , 沿江路 沿江东街27-10号,104.74575327061001,31.46779185707752
16401746,罗胖子鞭肾馆,3.0,0.0,7.6,7.6,7.6,1 条点评,川菜 , 高水 长虹大道北段53号,104.74628902001616,31.491559421488525
16420934,妙相火锅,3.0,0.0,7.1,7.3,7.3,5 条点评,火锅 , 开元场 越王楼旁,104.76782355902357,31.48011696430004
16438304,酿云山坊,3.0,0.0,7.5,7.5,7.5,3 条点评,川菜 , 园艺山 园艺街19号阳光清华商业街A区,113.94478821891745,22.604074228571392
16454885,彭州老俵肥肠鸡(花园店),3.0,0.0,7.5,7.8,7.5,57 条点评,川菜 , 涪城万达广场 荷花东街39号,104.72171201007703,31.457201781762855
16790308,杰士休闲驿站(江油纪念碑店),4.0,0.0,7.7,7.8,7.9,9 条点评,其他 , 江油市中心城区 纪念碑汇星百货后巷,104.7493316535412,31.780250889339975
16793933,一休小米辣,3.0,0.0,7.2,7.3,7.0,14 条点评,川菜 , 涪城区 西科大西门兴龙街,104.69061496489896,31.54079385282082
16814419,金诺瑞(五路口店) 分店,5.0,0.0,9.1,9.1,9.2,274 条点评,面包甜点 , 中坝镇 涪江路中段东大街242号五路口商店1-B区8号,107.54706052378756,33.226199116557055
16952177,绝味鸭脖 分店,3.0,0.0,7.4,7.4,7.4,1 条点评,小吃面食 , 普明 普明寺后街,104.6880192653143,31.474282467364514
16952179,米克汉堡,3.0,0.0,6.8,6.8,7.1,1 条点评,快餐简餐 , 普明 高新区普明中路8号,104.68032751180881,31.479063681805734
16952192,梁山土碗菜,3.0,0.0,7.7,7.2,7.2,1 条点评,川菜 , 普明 普明北路东段,104.6880192653143,31.474282467364514
16952237,重庆红九九自助火锅,3.0,0.0,7.0,6.9,6.9,1 条点评,火锅 , 高新区 永昌路,121.45034501537513,37.51440795700866
16952263,吉顺东北饺子馆,3.0,0.0,6.7,6.7,6.7,2 条点评,快餐简餐 , 普明 普明寺后街12号,104.68659634938648,31.47900407974312
16952303,金诺瑞(高新店) 分店,4.0,0.0,8.3,8.3,8.4,22 条点评,面包甜点 , 普明 普明北路西段家电城,104.6880192653143,31.474282467364514
16952310,十三小厨(富临店),3.0,0.0,7.0,7.5,7.2,19 条点评,快餐简餐 , 普明 高新区普明南路东段100号,104.6888579565757,31.475731309458837
16952412,清幽茶楼,3.0,0.0,7.3,7.3,7.3,1 条点评,茶馆 , 布鲁斯国际 虹苑北路19号,104.67705076908821,31.469786648184016
16958990,合鼎元,5.0,0.0,9.0,9.1,9.1,479 条点评,火锅 , 凯德广场 临园路东段凯德广场沃尔玛5楼,104.75731335760764,31.467544165021955
17155357,一鸣•巴适土鸡馆,3.0,0.0,6.5,6.5,6.5,2 条点评,川菜 , 圣水 长虹大道北段155-4号,104.74069910826836,31.506248720074147
17160183,彼得家厨意大利主题自助餐厅,3.0,0.0,7.5,8.0,7.8,252 条点评,自助餐 , 涪城万达广场 花园路9号万达广场3楼3015号,104.72671611075091,31.459551810130254
17161884,面包新语(梅西店),4.0,0.0,8.5,8.5,8.3,111 条点评,面包甜点 , 步行街 兴达街12号梅西百货1楼,104.75953681106695,31.46709468568989
17164406,筷子花包子酒家(园艺店) 分店,3.0,0.0,7.3,8.0,7.2,31 条点评,川菜 , 园艺山 园艺街北段,104.71717350114896,31.489747957825198
17171765,自贡牛肉汤锅(三分店),4.0,0.0,7.3,7.7,7.7,5 条点评,火锅 , 涪城区 滨江广场蓝泊湾2楼,104.76343380948795,31.47004970379568
17197210,天天渔港海鲜酒楼,3.0,0.0,6.8,7.1,7.0,2 条点评,粤菜 , 涪城区 石桥铺万豪尊品2期,104.71914724184599,31.45941505631353
17200957,良木缘(绵阳凯德广场店),4.0,0.0,8.5,8.7,8.5,147 条点评,咖啡厅 , 凯德广场 临园路东段,104.74781245633054,31.470407279466674
17202121,老灶房(御营店) 分店,4.0,0.0,8.3,8.4,8.1,28 条点评,其他 , 御营坝 御营坝石塘路,104.74694405181776,31.460787789031052
17214985,巴人芋儿肥肠鸡白果鸡,3.0,0.0,7.1,7.0,7.0,3 条点评,川菜 , 园艺山 园艺山银都领地1期,104.71752653521439,31.497562405679783
17215959,南方鸭肠王,3.0,0.0,7.1,7.3,7.1,39 条点评,火锅 , 东方华尔街 长虹大道中段,104.74430169873644,31.485086094438103
17218156,鱼米之乡风味轩,3.0,0.0,6.9,6.9,6.9,5 条点评,川菜 , 五里堆 五里堆南路恒馨苑5-15号,104.7654119231362,31.485214466838034
17220565,锅锅香自助火锅豆花鱼,3.0,0.0,7.0,6.9,7.0,1 条点评,火锅 , 高新区 二环路,102.66621202605991,25.07491051284451
17220744,眼镜火锅(三桥店),3.0,0.0,7.5,7.5,7.7,3 条点评,火锅 , 江油市中心城区 江油市涪江三桥红庙小区,104.73273694144845,31.74911084984611
17228295,笑和耗儿鱼,3.0,0.0,7.1,7.3,7.3,93 条点评,火锅 , 涪城万达广场 涪城区花园路9号万达广场3楼3015号,104.72671611075091,31.459551810130254
17229205,豌豆房子,3.0,0.0,7.3,7.3,7.3,2 条点评,咖啡厅 , 人民公园 安昌路,104.7542011063039,31.467296441196666
17229284,兰兰西饼(剧场店),4.0,0.0,8.2,8.3,8.1,154 条点评,面包甜点 , 江油市中心城区 江油市中坝剧场对面,104.75403133554558,31.78383913051012
17232044,十字口牛杂火锅,3.0,0.0,6.1,6.1,6.1,3 条点评,火锅 , 江油市中心城区 钢城路,104.6144411001455,31.776960641614036
17232218,99红春卷,3.0,0.0,6.6,6.4,6.6,11 条点评,小吃面食 , 步行街 马家巷中间居民楼院内,104.75488769018823,31.4707878758284
17244942,BreadTalk(绵阳长虹店),3.0,0.0,7.7,7.5,7.5,2 条点评,快餐简餐 , 跃进路 跃进路4号长虹国际城1楼,104.75058065123415,31.47507425141395
17247356,i生活麻辣豆花面,3.0,0.0,7.8,7.4,7.7,11 条点评,小吃面食 , 沿江路 沿江东街39-4号,104.74648013451342,31.46785237486594
17255873,爱达乐(临江店),4.0,0.0,8.5,8.5,8.5,62 条点评,面包甜点 , 涪城区 长虹大道124号沿江东街临江市场左旁,104.7455675908611,31.469038259200406
17255879,爱达乐(金柱园店),4.0,0.0,8.4,8.5,8.5,104 条点评,面包甜点 , 涪城区 长虹大道103号,104.74437313648212,31.473880519433525
17255882,爱达乐(高新区西店),4.0,0.0,8.8,8.8,8.7,181 条点评,面包甜点 , 普明 火炬东街32号西点超市门口,104.68981948392917,31.475744974982245
17255885,爱达乐(西蜀店),4.0,0.0,8.4,8.4,8.4,106 条点评,面包甜点 , 涪城区 跃进路北段61-11号,104.74920096715731,31.49275810189799
17257284,爱鸭黑鸭王(红星店),3.0,0.0,6.5,6.5,6.8,1 条点评,快餐简餐 , 马家巷 红星街78-3号,104.76148163800453,31.460367576321985
17260732,巴国口福火锅食府(二肥旗舰店),3.0,0.0,6.9,6.8,6.9,1 条点评,火锅 , 涪城区 广场南路,104.82997168668,31.35318554966522
17261480,巴乡盆景火锅,3.0,0.0,7.4,7.6,7.6,2 条点评,火锅 , 江油市中心城区 涪江路东段阳光花园附近,104.7610007678786,31.768876425172227
17264458,百姓厨房,3.0,0.0,7.6,6.4,6.8,1 条点评,川菜 , 花荄镇 花荄镇启明星大道南段,104.57195089379456,31.544238790680826
17267366,北川乡村菜,3.0,0.0,7.3,7.3,7.3,1 条点评,其他 , 永昌镇 九州巷28号,104.47042492248082,31.61276641780245
17267371,北川紫金砂锅特色中餐,0.0,0.0,6.8,6.3,6.8,1 条点评,快餐简餐 , 永昌镇 永昌大道34-1号,104.4657767475178,31.623707446003678
17275008,茶与布朗,2.0,0.0,6.0,6.4,6.4,1 条点评,面包甜点 , 永昌镇 禹王西街32号,104.46948576023964,31.61273373627464
17283751,川之味王肥肠,3.0,0.0,7.0,7.0,7.2,3 条点评,小吃面食 , 涪城区 新火车站旁顺辉花园C区6号门面,104.67051389601079,31.435734812546766
17283908,传说中的烧烤,3.0,0.0,6.3,6.2,6.2,3 条点评,烧烤 , 太平镇 新华路中段,104.70326600620962,31.772412783900958
17285807,粗茶淡饭,3.0,0.0,7.4,6.5,7.1,2 条点评,川菜 , 花荄镇 罗胜街96号,104.57062697382887,31.545684027209102
17292848,德华开元米粉(科学城店),3.0,0.0,7.8,7.2,7.3,8 条点评,快餐简餐 , 六里村 绵山路,104.76837771021809,31.493796051375803
17293959,邓三饭店,3.0,0.0,7.3,7.3,7.3,1 条点评,快餐简餐 , 平武县中心城区 政府街19号,104.60007838349914,32.11062925652311
17296490,调鼎记老火锅,4.0,0.0,8.2,7.9,8.2,10 条点评,火锅 , 三台县中心城区 三台县后北街168号,105.09455461029889,31.09746149795207
17308768,风暴A8酒吧,4.0,0.0,8.4,8.5,8.4,12 条点评,酒吧 , 三台县中心城区 新西街13-附2（武昌馆二楼）,105.09489506808717,31.093647174099058
17310298,奉记米粉,3.0,0.0,7.6,7.6,7.6,2 条点评,快餐简餐 , 安县中心城区 益昌路西段,104.3687860107807,31.58918164277606
17313814,福禧羊春火锅,4.0,0.0,8.0,8.0,8.0,4 条点评,火锅 , 三合镇 江油市火车站蟠龙小区旁,104.80594590484925,31.78277466160138
17320275,古今一家老火锅,3.0,0.0,7.4,7.4,6.9,5 条点评,火锅 , 花荄镇 花荄镇启明星大道南段,104.57195089379456,31.544238790680826
17325442,桂鑫胖米粉(高水店),3.0,0.0,7.6,7.0,7.5,3 条点评,快餐简餐 , 高水 高水中街18-31号,104.74142220827169,31.499602195921835
17327915,嗨哗鲜米粉(平武分店),3.0,0.0,7.0,7.0,7.0,2 条点评,快餐简餐 , 平武县中心城区 南街,104.40430826693263,32.446911722865075
17333432,好地方茶楼,3.0,0.0,7.3,7.3,7.3,1 条点评,茶馆 , 花园镇 花园镇中心小学校100米,104.94248657450066,31.283037752264516
17336362,何肥肠,3.0,0.0,7.6,7.2,7.2,1 条点评,小吃面食 , 北坝镇 文华路文化小区对面,130.974630147214,45.305562127353944
17340205,红99小吃店,3.0,0.0,7.7,7.7,7.7,1 条点评,小吃面食 , 平武县中心城区 飞龙路西段,104.53403691711836,32.413030577462706
17345564,鸿福养胃坊盐排骨(安县店),4.0,0.0,8.5,8.3,8.5,30 条点评,快餐简餐 , 安县中心城区 花荄文苑路东段53号,104.56780411880115,31.54464199195926
17346997,猴王面馆,3.0,0.0,7.7,7.5,7.5,2 条点评,小吃面食 , 太平镇 梁园路,104.70326600620962,31.772412783900958
17354501,黄氏宜宾烧烤,3.0,0.0,7.2,7.2,6.8,1 条点评,烧烤 , 安县中心城区 启明星大道南段,104.57195089379456,31.544238790680826
17358417,激情烤翅店,3.0,0.0,7.3,7.3,7.3,2 条点评,烧烤 , 涪城区 绵阳市游仙区一环路东段165号1区41号,104.77577535939788,31.48038299539139
17359923,纪念碑火锅,3.0,0.0,7.5,7.5,7.5,1 条点评,火锅 , 江油市中心城区 明月街,104.75059691775031,31.782107885366912
17363301,嘉和坊,3.0,0.0,7.0,7.0,7.0,1 条点评,咖啡厅 , 永昌镇 永昌镇茅坝街47号,104.46345776286074,31.62147205967966
17364170,嘉娃子特色烧烤,3.0,0.0,7.4,7.0,7.2,2 条点评,烧烤 , 江油市中心城区 南苑路,104.7591527315631,31.767730771642665
17365077,简阳九指羊肉汤锅,4.0,0.0,7.8,7.8,7.8,2 条点评,火锅 , 三台县中心城区 九倒拐24号,105.09309514231987,31.094696046245094
17365702,剑阁麻辣串(三桥店),3.0,0.0,7.4,7.4,7.4,2 条点评,小吃面食 , 沈家坝 一环路东段61-4号,104.77460248052066,31.470801404256317
17365979,健民肥肠店,3.0,0.0,7.6,7.0,7.0,27 条点评,小吃面食 , 江油市中心城区 昌明河西街,104.74818562411735,31.778256679288788
17368390,街客莱,4.0,0.0,8.2,8.3,8.3,274 条点评,快餐简餐 , 江油市中心城区 纪念碑街中段与川信巷交叉口附近,104.74800695115141,31.780133347378865
17369810,今都韩式烤盘,3.0,0.0,7.7,6.8,7.7,2 条点评,韩国料理 , 永昌镇 耶尼巷1号,104.47152257994958,31.61415017314086
17374408,金芮菌宝,3.0,0.0,7.3,7.0,7.1,10 条点评,火锅 , 江油市中心城区 江油市纪念碑街东段金外滩12号,104.75831194096172,31.78244797866686
17375278,金穗麦佳鸡汁水饺(御营店),3.0,0.0,7.4,7.5,6.8,11 条点评,川菜 , 御营坝 御林街11-10号,104.75133739277881,31.461494942285977
17379305,惊椒面,3.0,0.0,6.5,6.3,6.3,2 条点评,小吃面食 , 开元场 开元北街9-2号,104.7681149217208,31.47355865485807
17381611,九久烧烤,3.0,0.0,7.1,7.1,6.8,1 条点评,烧烤 , 三台县中心城区 清真巷明月桂园水吧旁边,105.09269960942078,31.093344124306828
17382355,久久隆川菜瓦缸寨,3.0,0.0,7.7,7.2,7.2,1 条点评,川菜 , 平武县中心城区 东街平武县中小企业局旁边,104.5382568249295,32.41240608770384
17384812,聚源烧烤,4.0,0.0,7.9,7.9,7.9,3 条点评,烧烤 , 安县中心城区 花荄启明星大道南段,104.57041727518724,31.54766691708231
17387352,开心面馆,3.0,0.0,7.2,7.2,7.2,2 条点评,快餐简餐 , 永昌镇 九峰路12-3号,104.47146308068413,31.624407065210036
17387457,开元龙米粉,3.0,0.0,7.1,7.1,7.1,1 条点评,快餐简餐 , 永昌镇 会州路19-4号,104.47522057315773,31.608102526126665
17387475,开元鲜米粉,3.0,0.0,7.6,7.3,7.5,3 条点评,快餐简餐 , 安县中心城区 好医生大道中段安洲花园旁,104.55968936314284,31.546362735602003
17388310,凯宴庄园,3.0,0.0,7.6,7.6,7.6,3 条点评,川菜 , 太平镇 江油市太平镇汇丰路2号,104.73555229289981,31.764750060032117
17389229,康乃馨饼屋,4.0,0.0,8.3,8.2,8.4,50 条点评,面包甜点 , 江油市中心城区 江油市恒丰园2D期巴将军斜对面,104.74355621745136,31.7751584587296
17395745,辣得跳冷锅串串,3.0,0.0,7.6,7.6,7.6,1 条点评,火锅 , 中坝镇 花园中路26号,104.75659127718109,31.78792890927117
17396397,赖三娃烤鱼坊,3.0,0.0,7.5,7.2,7.7,3 条点评,川菜 , 永昌镇 会州路21-10号,104.47526196527902,31.60538326151421
17397245,兰州正宗牛肉拉面(万兴街店),3.0,0.0,7.1,6.8,6.8,1 条点评,清真菜 , 普明 万兴街24号,104.67942200009205,31.47858390695303
17399676,老地方砂锅米粉,3.0,0.0,7.6,6.4,7.6,1 条点评,快餐简餐 , 花荄镇 启明星大道南段,104.57195089379456,31.544238790680826
17399873,老房子家常菜,3.0,0.0,6.8,6.8,6.8,1 条点评,川菜 , 平武县中心城区 东街33号,104.40430826693263,32.446911722865075
17399992,老格冷锅串串(长城路分店),3.0,0.0,7.7,7.7,7.7,1 条点评,火锅 , 江油市中心城区 钢城路,104.6144411001455,31.776960641614036
17400760,老麻抄手,4.0,0.0,7.9,7.7,8.0,20 条点评,小吃面食 , 江油市中心城区 四川省江油市明月街10号（一中对面）,104.74953370230166,31.781774326563454
17402247,老渔翁片片鱼火锅,3.0,0.0,6.9,6.6,6.9,4 条点评,火锅 , 永昌镇 会州路21-2号,104.47523179838339,31.605852975851565
17403361,乐山大众串串香(三台店),3.0,0.0,7.4,7.1,7.1,1 条点评,小吃面食 , 三台县中心城区 梓锦新城步行街23号附1号,105.08952106317038,31.090747651700504
17408568,恋客,3.0,0.0,7.5,7.0,6.6,4 条点评,面包甜点 , 中坝镇 火炮街,104.75064670633321,31.782018482643775
17408909,梁家酱面馆,3.0,0.0,7.3,7.3,7.3,1 条点评,快餐简餐 , 东方红大桥 剑南路西段9号鼎浩欣园1楼7号,104.75490978850377,31.473186528609535
17409738,邻江花椒鱼真味干锅,3.0,0.0,6.7,7.0,6.7,2 条点评,川菜 , 永昌镇 滨河北路49号,120.8551373245256,27.945100481529757
17410084,林氏玉康饭店,3.0,0.0,6.9,6.9,6.9,2 条点评,快餐简餐 , 安县中心城区 花亥镇启明星大道南段,104.57195089379456,31.544238790680826
17413902,六珍香,3.0,0.0,6.8,6.8,6.3,1 条点评,火锅 , 江油市中心城区 昌明河西街,104.74818562411735,31.778256679288788
17415140,龙生火锅北川,3.0,0.0,7.0,7.0,7.0,1 条点评,火锅 , 永昌镇 永昌镇湔江路24-5号,104.48203592004494,31.614696886378695
17419816,骉骉老火锅(盐亭店),3.0,0.0,7.1,7.1,7.1,8 条点评,火锅 , 云溪镇 弥江路丝绸大厦2-3楼,117.22939107356719,39.118987815179366
17420072,马大姐清真,3.0,0.0,7.7,7.2,7.7,1 条点评,清真菜 , 花荄镇 罗胜街80号,104.562392957304,31.547510126367985
17423190,毛记冒菜,4.0,0.0,7.8,7.6,7.8,3 条点评,川菜 , 北坝镇 恒昌路红星快餐旁边,105.09519744939979,31.11927820045561
17429180,绵阳机场路哑巴兔(三天店),3.0,0.0,7.7,7.7,7.7,1 条点评,川菜 , 三台县中心城区 阵氏野鱼庄向西100米,105.04258112078466,31.118872490872526
17429182,绵阳片片鱼(江油店),3.0,0.0,7.2,7.2,7.2,1 条点评,火锅 , 江油市中心城区 昌明河西街145号,104.74839501823344,31.77769847715056
17432729,茗满天下,3.0,0.0,7.4,7.4,7.4,2 条点评,咖啡厅 , 潼川镇 恒昌路王鱼府楼上,105.09796691091417,31.101708083032666
17445065,胖哥肥肠鸡,4.0,0.0,8.7,8.1,8.8,29 条点评,川菜 , 三台县中心城区 梓锦新城步行街,105.08952106317038,31.090747651700504
17445593,盆派小火锅(嘉禾园店),3.0,0.0,6.9,6.9,6.9,1 条点评,快餐简餐 , 五一广场 跃进路五一名都小区正大门对面,104.7502347371382,31.487146344119978
17445912,彭州特色老俵肥肠鸡(花荄店),3.0,0.0,6.8,6.6,7.1,3 条点评,小吃面食 , 花荄镇 花荄镇,104.57019109084287,31.554705931351915
17448878,七杯茶西南,3.0,0.0,7.4,7.4,7.4,1 条点评,面包甜点 , 中坝镇 火炮街,104.75064670633321,31.782018482643775
17449445,七味面馆,3.0,0.0,7.4,7.1,7.4,5 条点评,小吃面食 , 花荄镇 花荄镇文苑路东段,104.56876952866148,31.54514789927858
17453013,羌巴拿烧烤,3.0,0.0,7.1,7.1,7.1,7 条点评,烧烤 , 永昌镇 五音巷36号,104.46999481020943,31.61341493960094
17453020,羌家豆花庄,3.0,0.0,7.2,7.0,7.0,1 条点评,川菜 , 永昌镇 滨河北路33号,120.8551373245256,27.945100481529757
17453029,羌山白果鸡特色中餐,3.0,0.0,7.3,7.1,7.3,1 条点评,川菜 , 永昌镇 会州路15-1号,104.47521006118666,31.608962292794267
17454391,沁林茶楼,3.0,0.0,7.7,7.7,7.7,1 条点评,茶馆 , 花荄镇 花荄镇金鸿路东段,104.5685205668826,31.548661789007806
17457920,球溪河周鲢鱼,3.0,0.0,6.5,7.0,7.2,4 条点评,川菜 , 安县其他 地质公园博物馆旁,104.3687860107807,31.58918164277606
17461976,容平小吃,4.0,0.0,7.7,7.5,7.6,3 条点评,快餐简餐 , 涪城区 会昌路,104.67051389601079,31.435734812546766
17467001,三只首(御营店),3.0,0.0,6.8,6.7,6.7,10 条点评,火锅 , 人民公园 安昌路17号,104.75469572230074,31.46479432188935
17486544,四海香宴会厅,3.0,0.0,7.0,6.8,6.8,2 条点评,咖啡厅 , 三台县中心城区 老西街50,105.09492830539104,31.091920086445768
17496381,天桥火锅,3.0,0.0,6.4,6.4,6.4,1 条点评,火锅 , 江油市中心城区 清香园街,104.75054693693005,31.78153722816825
17499199,田园菜,3.0,0.0,7.3,7.3,7.3,3 条点评,川菜 , 永昌镇 九州巷32号,104.47045488546111,31.612776513513484
17504513,潼南太安鱼,3.0,0.0,7.7,7.3,7.1,3 条点评,川菜 , 三台县中心城区 小南街,105.09456670238936,31.093209419675
17511354,维多利亚休闲会馆(维纳斯),3.0,0.0,7.0,7.0,7.0,3 条点评,咖啡厅 , 北坝镇 梓州干道 三台县电力医院斜对面,105.09519744939979,31.11927820045561
17515436,文二姐清真烧烤庄,3.0,0.0,7.6,7.2,7.6,1 条点评,烧烤 , 花荄镇 罗胜街南段,104.56401946339598,31.545544831333093
17517114,无名指餐厅(高山店),3.0,0.0,7.0,7.1,6.9,8 条点评,快餐简餐 , 高水 跃进路北段8102号,104.74749487928189,31.501304875242283
17517828,五彩池饮吧总店,3.0,0.0,7.6,7.6,7.6,1 条点评,面包甜点 , 中坝镇 火炮街,104.75064670633321,31.782018482643775
17521722,嘻乎螺茶庄,3.0,0.0,7.0,7.0,7.0,1 条点评,茶馆 , 花荄镇 花荄镇文星七巷,104.57048698459312,31.54687642480231
17521976,喜欢你喜庆用品,3.0,0.0,7.3,7.3,7.3,1 条点评,酒吧 , 江油市中心城区 涪江路中段,104.75391551701615,31.78108464930815
17522833,喜上喜火锅(北川店),3.0,0.0,7.2,7.2,7.6,1 条点评,火锅 , 永昌镇 会州路21-5号,104.47523185318002,31.60574299262767
17523752,夏威夷茶楼,3.0,0.0,7.7,7.7,7.7,3 条点评,茶馆 , 江油市中心城区 文化巷6号,104.75219080636923,31.77742525888843
17523955,仙海胖哥鱼庄(上马新村店),4.0,0.0,7.7,7.3,7.7,9 条点评,火锅 , 园艺山 科教创业园区,104.69502514998659,31.481118972408616
17525584,乡村农家,3.0,0.0,7.1,7.1,7.1,1 条点评,川菜 , 八洞镇 八洞镇书房村2组,104.79630618393016,31.093315268194864
17526833,香鲫鱼火锅(休闲广场店) 分店,3.0,0.0,7.5,7.0,7.2,3 条点评,火锅 , 弥江路中段南门休闲广场旁,105.39893900048746,31.22747550467064
17526942,香辣居大烤坊,3.0,0.0,7.0,7.0,6.9,1 条点评,烧烤 , 江油市中心城区 花园路北段1号,104.75682215786667,31.79025118818622
17527505,香思尼,3.0,0.0,7.1,7.0,7.1,1 条点评,川菜 , 安县中心城区 好医生大道中段,104.55968936314284,31.546362735602003
17543753,鑫缘烧烤店,3.0,0.0,7.5,7.0,7.1,4 条点评,快餐简餐 , 高水 高水中街100号,104.74574843430096,31.501207900694368
17555890,杨肥肠小火锅 分店,3.0,0.0,7.7,7.7,7.7,3 条点评,火锅 , 秀水镇 秀水镇成青路,115.51970402214845,35.263186816909446
17556770,养胃坊(盐排骨梓潼店),3.0,0.0,7.1,6.9,7.1,4 条点评,快餐简餐 , 梓潼县中心城区 桂香路南段,105.17380311430439,31.63789884904582
17556772,养胃堂(江油店),4.0,0.0,8.2,7.9,8.3,15 条点评,川菜 , 江油市中心城区 中华御景三号楼17-20号门面,104.73541925385378,31.77493559306281
17556864,幺妹冒菜,4.0,0.0,8.0,7.5,7.6,14 条点评,快餐简餐 , 中坝镇 中坝镇生产街,104.75211155875543,31.782195530340317
17557942,一茶1座,3.0,0.0,7.3,7.3,7.3,1 条点评,茶馆 , 北坝镇 文华路12号,105.1035960211212,31.10108348393184
17558634,一米阳光茶楼,3.0,0.0,7.1,7.3,6.9,2 条点评,茶馆 , 云溪镇 十字街海门锦豪国际,105.3971399281104,31.229084931676976
17558941,一品人生,3.0,0.0,7.1,7.1,7.1,1 条点评,咖啡厅 , 安县中心城区 长兴街长兴小区旁,104.3687860107807,31.58918164277606
17559572,一休小米辣(磨家分店),3.0,0.0,7.0,6.9,7.0,5 条点评,自助餐 , 高新区 顺祥街18-2号,104.61031857583806,31.454562020458887
17568622,雍记肥肠,3.0,0.0,7.5,6.8,7.4,5 条点评,小吃面食 , 江油市中心城区 太安路,104.76447034265658,31.78990836018646
17568763,永昌第一庄,3.0,0.0,7.1,7.1,7.1,1 条点评,川菜 , 永昌镇 滨河南路1号,104.47132736558598,31.607780730543183
17574557,禹王楼,3.0,0.0,6.6,7.1,6.3,2 条点评,咖啡厅 , 永昌镇 巴拿恰商业街,99.18350346481586,25.118951204627614
17574913,玉林串串香(南湖店),3.0,0.0,7.4,7.4,7.4,2 条点评,火锅 , 南湖 红桥西路33号,120.84453542647287,30.71635792123517
17577390,原动力都市会所,3.0,0.0,7.5,7.9,7.8,7 条点评,咖啡厅 , 江油市中心城区 江油市白云路4号,104.7484970549597,31.780447120100238
17579139,月亮船音乐茶座,3.0,0.0,6.8,6.5,6.8,1 条点评,茶馆 , 江油市中心城区 诗仙路中段,104.74327870213354,31.782934515727597
17583065,张杰现酿酸奶吧,3.0,0.0,7.5,7.6,7.6,8 条点评,快餐简餐 , 西科大 西南科技大学游泳池边商业区10号,104.70234598775717,31.54051373039241
17586056,蒸品天下私房菜,4.0,0.0,7.9,7.9,7.9,3 条点评,川菜 , 潼川镇 北泉路23,105.09527209768937,31.104823966920975
17602199,周肥肠,3.0,0.0,7.3,7.4,7.4,2 条点评,小吃面食 , 中坝镇 涪江路中段,104.75391551701615,31.78108464930815
17602619,周四鸡杂王,3.0,0.0,6.2,6.2,6.2,2 条点评,火锅 , 三台县中心城区 涪江花园附近,105.10580918808411,31.100391822250494
17603252,诸葛乡村烤鱼(绵阳店),4.0,0.0,8.3,8.0,8.0,47 条点评,川菜 , 西科大 青义路,121.52972465401899,32.0112081697474
17605259,紫荆谷休闲会所,3.0,0.0,7.1,7.1,7.1,1 条点评,咖啡厅 , 江油市中心城区 观唐小区旁,104.74143071432655,31.78874593929594
17607895,醉羌乡私房菜,3.0,0.0,7.1,7.1,7.6,4 条点评,其他 , 永昌镇 永昌镇石泉南街,104.47167329854635,31.61289051547877
17611153,圣多美汉堡炸鸡(老西街店) 分店,4.0,0.0,8.2,8.2,8.2,182 条点评,快餐简餐 , 三台县中心城区 三台县老西街25号,105.09428062711834,31.0930333426386
17611182,圣多美汉堡炸鸡(恒昌路店) 分店,4.0,0.0,8.3,8.3,8.5,184 条点评,快餐简餐 , 三台县中心城区 三台县恒昌路3号,105.0977326355321,31.099980433667625
17616001,十三小厨(沈家坝店),4.0,0.0,7.7,8.1,7.5,57 条点评,快餐简餐 , 沈家坝 东津路沈家坝公路局1楼,104.77563520936545,31.47297411317544
17620502,波涛小吃,3.0,0.0,6.8,6.9,6.9,3 条点评,快餐简餐 , 武都镇 武都镇汽车站左边100米,115.86499398800564,39.3208591710094
17621993,后门兔头,3.0,0.0,7.2,7.0,7.2,2 条点评,川菜 , 芙蓉汉城 芙蓉汉城2期33号11-12号,104.77642815801198,31.47891584909848
17628122,瓦缸小吃,3.0,0.0,7.2,6.2,7.2,2 条点评,快餐简餐 , 西科大 青义路,121.52972465401899,32.0112081697474
17634206,三碗不过岗(芙蓉金城店),4.0,0.0,8.8,8.8,8.8,60 条点评,川菜 , 游仙区 芙蓉金城29幢1层10号,104.78188009991482,31.50080860342602
17654539,皇城贝勒,3.0,0.0,7.1,7.0,7.1,4 条点评,小吃面食 , 双碑 高新区双碑66-8号,104.6843656771441,31.476503793986918
17659033,皇城贝勒烧烤,3.0,0.0,7.1,6.9,7.0,6 条点评,烧烤 , 普明 高新区双碑中街66-7、8、9号,104.69532759687553,31.475734710229585
17665290,李记养生盐排骨,3.0,0.0,7.5,7.5,7.5,2 条点评,东北菜 , 安昌镇 安昌镇安洲大道西段丽都花园楼下,120.5039096068003,30.14284467889377
17678790,木屋烧烤—铁板鱿鱼,4.0,0.0,8.1,8.0,8.1,13 条点评,烧烤 , 江油市中心城区 好吃街原肖记门面,104.75491296221713,31.777358597971123
17679263,仁品好,3.0,0.0,6.4,6.4,6.4,2 条点评,火锅 , 许州镇 许州镇广场,105.15690185815127,31.80171952485337
17680499,巴蜀瓦块烧,4.0,0.0,7.7,7.6,7.6,26 条点评,川菜 , 沈家坝 职业技术学院后门前行100米(鸿福宾馆旁),105.94969554029962,26.246718141611378
17680936,原味地图(高新区店) 分店,3.0,0.0,7.2,6.9,7.4,11 条点评,快餐简餐 , 普明 高新区21世纪花园门口,104.6880192653143,31.474282467364514
17694346,麻雀飞外卖送餐,3.0,0.0,6.4,6.4,6.4,3 条点评,快餐简餐 , 园艺山 园艺街,113.94478821891745,22.604074228571392
17737218,金江乡(鱼苗火锅、茶楼、宾馆),3.0,0.0,7.7,8.1,7.2,18 条点评,火锅 , 江油市中心城区 江油市诗仙路中段282号,104.73895999239427,31.782727607332717
17766653,金诺瑞(曼哈顿店) 分店,4.0,0.0,8.4,8.5,8.4,51 条点评,面包甜点 , 人民公园 御林街8号曼哈顿2期,104.75238057969635,31.461800158906254
17766656,金诺瑞(永兴店) 分店,4.0,0.0,8.1,8.2,8.3,101 条点评,面包甜点 , 游仙区 弘光路永兴镇,104.98157984665036,31.518816009605445
17766661,金诺瑞(外国语店),4.0,0.0,8.5,8.5,8.5,177 条点评,面包甜点 , 高新区 普明北路东段545号,104.68685420798312,31.479792954980052
17766672,金诺瑞(平政店),4.0,0.0,8.5,8.4,8.5,50 条点评,面包甜点 , 高水 飞虹路38号自建房,104.7478669870682,31.495539710895585
17766680,金诺瑞(原山店) 分店,4.0,0.0,8.2,8.2,8.2,25 条点评,面包甜点 , 六里村 五里堆路富临原山,104.7694892869307,31.487133872826366
17766686,金诺瑞(芙蓉汉城店) 分店,4.0,0.0,8.1,8.1,8.1,1 条点评,面包甜点 , 五里堆 仙人路芙蓉汉城老房子对面,104.76505102889756,31.486743566677983
17766692,金诺瑞(临江店),4.0,0.0,8.3,8.3,8.3,81 条点评,面包甜点 , 沿江路 长虹大道中段126号,104.74552399789133,31.46714841531419
17766705,金诺瑞(科学城148店),3.0,0.0,7.8,7.7,7.8,24 条点评,面包甜点 , 游仙区 科学城148区,104.74819154125575,31.517736066320353
17766711,金诺瑞(21世纪花园店) 分店,4.0,0.0,8.2,8.1,8.2,123 条点评,面包甜点 , 普明 普明中路21世纪花园,104.6880192653143,31.474282467364514
17766716,金诺瑞(翠满庭店) 分店,4.0,0.0,8.3,8.3,8.5,66 条点评,面包甜点 , 高水 跃进北路翠满庭,104.74477768747023,31.503977037527868
17766721,金诺瑞(丽景店) 分店,4.0,0.0,8.2,8.2,8.4,64 条点评,面包甜点 , 游仙区 花园路丽景花城,104.98157984665036,31.518816009605445
17766726,金诺瑞(开塑店) 分店,4.0,0.0,8.6,8.4,8.5,77 条点评,面包甜点 , 开元场 开元路开元锦都,104.76598133654133,31.47428375570473
17766734,金诺瑞(大桥店),4.0,0.0,8.3,8.4,8.3,132 条点评,面包甜点 , 东方红大桥 剑南路西段9号1栋6号,104.75510292418842,31.47355379349725
17766740,金诺瑞(西蜀店),4.0,0.0,8.2,8.2,8.1,60 条点评,面包甜点 , 高水 跃进路北段61号宇虹楼14号,104.74911010355497,31.49271491687955
17766749,金诺瑞(大西门店),4.0,0.0,8.1,8.2,8.3,66 条点评,面包甜点 , 南河 涪城路193号,104.7572789147778,31.460062574529715
17779927,乐倍DIY烘焙坊,4.0,0.0,8.4,8.3,8.5,104 条点评,面包甜点 , 人民公园 临园路东段49号时代大厦20楼M号,104.75604873928022,31.46902928242622
17780536,十三小厨(永兴店),3.0,0.0,7.6,7.8,7.6,19 条点评,快餐简餐 , 高新区 高新区永兴镇绵兴中路260号,104.64878282572391,31.466116394261
17786428,老井特色火锅,3.0,0.0,6.8,6.8,6.8,3 条点评,火锅 , 六里村 一环路北段26号,104.7394190489675,31.486410611908386
17789940,阅时光咖啡,3.0,0.0,7.2,7.2,7.2,16 条点评,咖啡厅 , 涪城万达广场 花园路9号万达外街A1区6-1-3号,104.72713966179887,31.458834802512445
17790047,香港酒窝甜品,3.0,0.0,7.2,7.3,7.3,6 条点评,面包甜点 , 跃进路 长虹国际城1楼,104.75058065123415,31.47507425141395
17790058,JADE CAFE吉咖啡,4.0,0.0,7.8,8.4,8.0,45 条点评,咖啡厅 , 跃进路 跃进路4号,114.54073866151383,38.055016561289705
17792046,麻辣一坊(高水店),3.0,0.0,7.5,7.6,7.6,32 条点评,火锅 , 高水 长虹大道北段90号隆盛春天花园二期二楼,104.74365161929312,31.49970717070467
17792375,重庆鬼鬼土灶火锅,3.0,0.0,7.0,7.0,7.0,1 条点评,火锅 , 五里堆 仙人路芙蓉汉城河堤2期,104.76505102889756,31.486743566677983
17792393,晓宇火锅,4.0,0.0,8.6,8.7,8.5,133 条点评,火锅 , 六里村 五里堆路,104.76837771021809,31.493796051375803
17800585,香源重庆老火锅(越王楼店),3.0,0.0,7.4,7.2,7.2,4 条点评,火锅 , 开元场 剑南路东段越王楼对面,104.77024709745893,31.486093899601954
17800782,曼妙午后,4.0,0.0,8.5,8.6,8.6,100 条点评,川菜 , 铁牛广场 青年广场滨江西路南段龙汇花园11号10栋2楼,104.77054427578604,31.461686908007128
17807168,柴门美食休闲广场,3.0,0.0,7.6,7.6,7.6,2 条点评,川菜 , 沿江路 沿江西街9号,110.75904995600001,19.622231971218408
17807299,西木咖啡,4.0,0.0,7.8,8.0,7.9,49 条点评,西餐 , 铁牛广场 铁牛街海赋外滩3楼,104.76041200317617,31.470663046861738
17807466,花半里T6火锅城(高新区店),4.0,0.0,8.5,8.5,8.6,124 条点评,火锅 , 双碑 高新区双碑场双碑社区四组,104.6843656771441,31.476503793986918
17807735,外婆厨房,3.0,0.0,7.7,8.1,7.7,29 条点评,快餐简餐 , 东方红大桥 成绵路10-13号,104.75233351253,31.472707988708233
17808275,花式瓜鲜锅,3.0,0.0,6.2,6.2,6.2,2 条点评,自助餐 , 塘汛 经开区塘汛镇西路19号,104.78187763855772,31.42675684590861
17814716,康幺妹串串香,3.0,0.0,7.2,7.2,7.2,9 条点评,火锅 , 安昌路 安昌西路,104.75195789820812,31.46644346727454
17816749,仙龙潭养生汤锅(东街店),4.0,0.0,8.7,8.7,8.8,90 条点评,火锅 , 步行街 警钟街,104.75488769018823,31.4707878758284
17816905,悠家烘焙生活馆,3.0,0.0,7.7,7.7,7.7,1 条点评,面包甜点 , 马家巷 红星街70-12号,104.76166097212332,31.45977818725042
17820467,肯德基(百盛店) 分店,3.0,0.0,7.2,7.3,7.3,4 条点评,快餐简餐 , 人民公园 安昌路百盛广场,113.88067401346485,35.31147688338011
17821548,骊园餐吧,3.0,0.0,7.0,7.3,7.0,7 条点评,川菜 , 老茶树 老茶树啤酒广场旁边,104.74197778238214,31.463055757620214
17840108,荷糖酸奶屋,4.0,0.0,8.1,8.3,8.2,20 条点评,面包甜点 , 南河 涪城路193号四维中餐后面,104.7572789147778,31.460062574529715
17842021,金诺瑞(万向店),4.0,0.0,7.9,7.8,7.9,16 条点评,面包甜点 , 布鲁斯国际 高新区双碑东街,104.6843656771441,31.476503793986918
17843393,坤记手撕烤兔,4.0,0.0,7.6,7.4,7.4,10 条点评,烧烤 , 高水 长虹世纪城2期32栋1-7号,104.74657047440364,31.49773104547343
17846748,普拉蒂休闲餐厅,3.0,0.0,7.6,7.7,7.4,265 条点评,西餐 , 马家巷 红星街40号,104.76207161901262,31.463399133962156
17847746,生蚝王,3.0,0.0,7.5,7.0,7.3,3 条点评,其他 , 涪城区 南河体育路42号,104.67052133398042,31.43582304322775
17848482,天龙山寨烤全羊,3.0,0.0,6.9,6.9,6.9,1 条点评,烧烤 , 五里堆 五里堆综合市场旁,104.76505102889756,31.486743566677983
17848871,唯乐台球会所,3.0,0.0,7.5,6.9,7.5,6 条点评,咖啡厅 , 人民公园 临园口富乐路金三角大厦6楼建设银行旁,104.75834920896241,31.46986913086855
17850537,彝家寨子火盆竹签烧烤,3.0,0.0,6.0,6.8,7.2,1 条点评,烧烤 , 江油市中心城区 西山公园脚下205线左转100米处,104.72279021833319,31.791938859942647
17851032,袁妈手撕烤兔(滨江路店),3.0,0.0,7.7,7.8,7.7,68 条点评,快餐简餐 , 凤凰城 滨江路10-30-31号,104.75355456169277,31.482020748807933
17851480,致青春DIY创意烘焙生活馆,3.0,0.0,6.4,6.7,6.5,4 条点评,面包甜点 , 中坝镇 中坝镇新天地步行街（凯悦宾馆斜对面2楼）,111.48265851631275,33.309817113037305
17851690,诸葛烤鱼,3.0,0.0,7.5,7.7,7.7,11 条点评,川菜 , 江油市中心城区 太白路汇园沃尔玛1楼,104.75386541851788,31.790463559492885
17856314,金诺瑞(华丰店),4.0,0.0,8.4,8.4,8.3,123 条点评,面包甜点 , 江油市其他 华丰桥工商银行对面,104.74557316035526,31.77148883997275
17856319,金诺瑞(江高店),4.0,0.0,9.0,9.0,8.8,177 条点评,面包甜点 , 中坝镇 长城干道江高斜对面,104.75932316347429,31.77069766167978
17856333,金诺瑞(一中店),5.0,0.0,9.0,9.0,9.0,182 条点评,面包甜点 , 江油市中心城区 诗仙路一中旁,104.7417945280581,31.783118272625725
17856341,金诺瑞(实验中学店) 分店,4.0,0.0,8.4,8.5,8.2,108 条点评,面包甜点 , 江油市中心城区 实验中学旁边,104.93314929992522,31.952426668806112
17856354,金诺瑞(荣发店),4.0,0.0,8.5,8.5,8.4,89 条点评,面包甜点 , 江油市中心城区 金轮干道荣发小区31号门面,104.74631519035059,31.77965688886558
17856367,金诺瑞(恒丰店),5.0,0.0,9.0,9.1,9.0,202 条点评,面包甜点 , 江油市中心城区 恒丰园2期D区7栋1楼98号,104.74376986594231,31.775833300612355
17856373,金诺瑞(长钢店),4.0,0.0,8.4,8.4,8.5,85 条点评,面包甜点 , 江油市中心城区 长钢街,104.93314929992522,31.952426668806112
17856475,金诺瑞(大十字店) 分店,4.0,0.0,7.9,7.9,7.9,8 条点评,面包甜点 , 三台县中心城区 上东街1号,105.09725389079698,31.093744463311996
17856481,金诺瑞(梓州店),4.0,0.0,8.3,8.3,8.2,109 条点评,面包甜点 , 三台县中心城区 解放上街,105.0962314017367,31.096397870821555
17856489,金诺瑞(北泉店),4.0,0.0,8.3,8.3,8.1,30 条点评,面包甜点 , 潼川镇 北泉路32号,105.09476254556681,31.101844667763082
17856505,金诺瑞(恒昌路店),3.0,0.0,7.9,8.1,7.8,13 条点评,面包甜点 , 潼川镇 恒昌路,105.0763883414622,31.088692191122643
17856555,金诺瑞(南街店),4.0,0.0,7.9,8.0,7.9,51 条点评,面包甜点 , 南河 建设街38-4号,103.59731825197365,30.38225119789398
17856563,金诺瑞(南河店),4.0,0.0,8.1,7.9,7.9,71 条点评,面包甜点 , 马家巷 红星街92号,104.76155025057939,31.4586774768541
17856580,金诺瑞(跃进店) 分店,4.0,0.0,8.4,8.4,8.5,46 条点评,面包甜点 , 圣水 跃进路中段10-16号,104.74736878323917,31.476875767868478
17856588,金诺瑞(开元店) 分店,4.0,0.0,8.2,8.2,8.2,9 条点评,面包甜点 , 开元场 剑南路东段241-26号,104.76635469926045,31.47494992282592
17856598,金诺瑞(剑南店) 分店,4.0,0.0,8.2,8.4,8.4,110 条点评,面包甜点 , 跃进路 剑南路47号,104.74843908461021,31.47343301455729
17856619,金诺瑞(警钟街店) 分店,5.0,0.0,9.0,9.1,9.0,482 条点评,面包甜点 , 步行街 警钟街23号,104.75984702919685,31.464930459843778
17856644,金诺瑞(小岛店),4.0,0.0,8.3,8.2,8.3,64 条点评,面包甜点 , 小岛 小岛花园尚岛国际3期2-3号,104.75640277226137,31.50672982277903
17857127,湘厨味来,4.0,0.0,7.8,7.8,8.0,56 条点评,湘菜 , 普明 普明南路东段65号,104.69316111574828,31.47440609012118
17868948,王大爷烧烤(绵阳店),3.0,0.0,6.4,7.3,7.3,8 条点评,烧烤 , 南河 滨河北路东段110号宏杰花园,104.75731751137234,31.457137297414082
17875340,筷乐食光,3.0,0.0,7.0,7.0,7.0,1 条点评,川菜 , 凯德广场 东津桥头,112.48024887550298,23.06334787723892
17879102,御龙会,3.0,0.0,7.2,7.6,7.6,2 条点评,咖啡厅 , 御营坝 御林街13号阳光曼哈顿2期6幢2楼3，4楼,104.75233731101486,31.45929391596553
17889241,老俵肥肠鸡(沈家坝店),3.0,0.0,7.5,7.6,7.6,17 条点评,川菜 , 沈家坝 东津路48号,104.78565642536344,31.467113590715247
17928891,聚义堂,3.0,0.0,6.9,6.9,7.0,1 条点评,川菜 , 天骄摩尔 跃进路北段天骄摩尔7栋1单元,104.74701532517354,31.501177019917908
17930737,上下酒吧,3.0,0.0,7.5,7.5,6.9,9 条点评,酒吧 , 南山 长虹大道南段172号126电子九所厂内39号楼,130.28176460827774,47.29882093826236
17931057,校草陈小虾(御营坝店),5.0,0.0,9.0,8.6,9.0,60 条点评,川菜 , 御营坝 绵阳市涪城区长虹大道南段88号,104.7529420053689,31.455012144281163
17932249,重庆虾王(园艺山分店) 分店,3.0,0.0,7.4,7.2,7.3,16 条点评,火锅 , 园艺山 园艺山银都领地,104.71820161899157,31.496778416360296
17942969,神仙兔,3.0,0.0,7.4,7.2,7.4,3 条点评,火锅 , 江油市中心城区 诗城路中段,104.74927644817609,31.790331508138788
17950723,爱达乐(七中店),4.0,0.0,8.4,8.5,8.5,94 条点评,面包甜点 , 南河 南河路22号附5号,117.24345405835597,29.297710210043547
17950726,爱达乐(普明北路店),4.0,0.0,8.6,8.7,8.7,103 条点评,面包甜点 , 普明 普明北路东段563号,104.68713836267695,31.479850472741468
17950732,爱达乐(三桥店),4.0,0.0,8.7,8.6,8.7,85 条点评,面包甜点 , 沈家坝 富乐城市花园二期二栋1-15号,104.77467814120052,31.471608932123036
17950739,爱达乐(群丰街店),4.0,0.0,8.3,8.3,8.4,104 条点评,面包甜点 , 桃园路 塘汛镇群丰街49号附1.2号,104.79908872297615,31.40316089619765
17950743,爱达乐(御林街店),4.0,0.0,8.6,8.9,8.8,94 条点评,面包甜点 , 御营坝 御林街东晖小区47-10-11号,104.75016116681523,31.460780570102575
17950744,爱达乐(东津店),4.0,0.0,8.0,7.9,7.9,103 条点评,面包甜点 , 沈家坝 东津路43-6-7号,104.78585749308574,31.467630873201685
17950777,爱达乐(九州国际店),4.0,0.0,8.6,8.5,8.5,44 条点评,面包甜点 , 跃进路 跃进路43号5栋321号,120.02673059125637,32.48673467896048
17950780,爱达乐(五里堆店),4.0,0.0,8.6,8.6,8.6,109 条点评,面包甜点 , 五里堆 汉城社区第二居民小组C栋门面,114.22934463488026,22.620274148744887
17950785,爱达乐(中央广场店),4.0,0.0,7.7,7.8,7.9,9 条点评,面包甜点 , 高水 中央广场1幢5号,104.74370827811656,31.50116363224205
17950790,爱达乐(涪城路店),4.0,0.0,8.5,8.6,8.5,83 条点评,面包甜点 , 步行街 涪城路179号附3-4号,104.75732799998747,31.461951903853354
17950791,爱达乐(崇尚国际店),4.0,0.0,8.7,8.7,8.6,210 条点评,面包甜点 , 跃进路 长虹大道中段110号崇尚国际人人乐1楼,104.74539082320115,31.471786395948207
17950795,爱达乐(世纪城店),5.0,0.0,9.1,9.1,8.9,324 条点评,面包甜点 , 高水 跃进路北段83号,104.74579767025816,31.504088145028796
17950798,爱达乐(秀水店),4.0,0.0,8.8,8.8,8.8,95 条点评,面包甜点 , 安县中心城区 水车站综合市场,104.3687860107807,31.58918164277606
17950800,爱达乐(花荄广厦店),4.0,0.0,8.9,8.8,8.8,130 条点评,面包甜点 , 花荄镇 花荄广厦步行街29-30号,104.75488769018823,31.4707878758284
17950805,爱达乐(罗胜街店),5.0,0.0,9.0,9.0,9.0,161 条点评,面包甜点 , 花荄镇 花荄罗胜街58号,104.56230321793102,31.54794045497095
17950806,爱达乐蛋糕(文苑路店),5.0,0.0,9.0,9.0,8.7,143 条点评,面包甜点 , 花荄镇 花荄文苑路7号,104.56706263770094,31.548427794280478
17950812,爱达乐(禹王西街店),4.0,0.0,8.7,8.7,8.6,80 条点评,面包甜点 , 永昌镇 新北川禹王西街58号,104.47018494106214,31.61303559620295
17950814,爱达乐(大东街店),4.0,0.0,8.7,8.6,8.6,92 条点评,面包甜点 , 安昌镇 安昌镇大东街17号,104.42656484514244,31.65029919013314
17950817,爱达乐(东河店),4.0,0.0,8.6,8.5,8.6,116 条点评,面包甜点 , 三台县中心城区 上东街亚东小区1-4号,105.09640601795495,31.093664181966627
17950822,爱达乐(潼川三小店),5.0,0.0,9.1,9.1,9.1,303 条点评,面包甜点 , 三台县中心城区 后北街与小学上街交叉口,105.09472805602506,31.095673106612505
17950823,爱达乐(喜洋洋广场店),4.0,0.0,8.5,8.4,8.5,145 条点评,面包甜点 , 三台县中心城区 解放下街,105.0986793031158,31.096428597493947
17950832,爱达乐(芦溪店),4.0,0.0,8.8,8.8,8.9,101 条点评,面包甜点 , 三台县中心城区 芦溪建设街19号,105.0739556196496,30.95478482644267
17950889,爱达乐(油坊街店),4.0,0.0,7.8,7.6,7.8,12 条点评,面包甜点 , 涪城区 遂宁市船山区油坊街108号,105.59408254167641,30.50936153856028
17957507,禾川精致料理,4.0,0.0,8.1,8.2,8.4,37 条点评,日本料理 , 天骄摩尔 涪城区跃进路天骄摩尔2号3楼,104.74751716624161,31.47930781155509
17986945,蒙古大本营,3.0,0.0,7.0,7.2,7.4,12 条点评,烧烤 , 塘汛 经开区南湖街板桥社区,104.79120573280387,31.42083925711881
17986954,龍虎豹•渔馆,3.0,0.0,7.0,7.0,7.0,2 条点评,其他 , 铁牛广场 顺河前街7--1号1栋1楼23号,104.76384333529198,31.46686637632728
17988352,豪虾传,4.0,0.0,8.7,8.4,8.6,29 条点评,川菜 , 五里堆 芙蓉汉城2期河堤,104.77815529767702,31.481635925210814
17988389,公爵壹号,4.0,0.0,7.8,7.8,7.8,7 条点评,西餐 , 御营坝 御营坝东街37号,104.75033126096355,31.461812887723685
17990933,麻雀飞外卖送餐(高新店),3.0,0.0,7.6,7.4,7.6,4 条点评,快餐简餐 , 火炬广场 高新区,114.63150526481915,38.04182897134169
17992271,天府大宅门,4.0,0.0,8.1,8.1,8.1,24 条点评,火锅 , 火炬广场 高新区永兴镇兴亚路1号综合市场旁,104.63734216844384,31.465303687786264
17995356,乐山熊外婆串串香,3.0,0.0,7.2,7.1,7.2,2 条点评,火锅 , 御营坝 御林街,104.74694405181776,31.460787789031052
17997770,爱恋手工巧克力作坊,3.0,0.0,7.2,7.6,7.6,1 条点评,面包甜点 , 安县中心城区 花荄银都宝座121号,104.3687860107807,31.58918164277606
18004386,席凉粉,3.0,0.0,7.2,7.1,7.1,2 条点评,小吃面食 , 圣水 跃进路,116.19666351783904,40.06281047006506
18005354,新川首座酒店,3.0,0.0,7.1,7.0,7.1,8 条点评,川菜 , 火炬广场 绵兴东路86号,104.69126431581651,31.471597206756215
18014337,JADE CAFE吉咖啡(长虹国际万达影...,4.0,0.0,8.2,8.3,8.2,27 条点评,咖啡厅 , 跃进路 长虹国际城4F,104.75058065123415,31.47507425141395
18014370,茶百道,3.0,0.0,7.4,7.3,7.6,3 条点评,咖啡厅 , 步行街 新世界百货对面,104.75488769018823,31.4707878758284
18016616,德华开元米粉(富乐路店),3.0,0.0,7.2,6.9,7.0,10 条点评,小吃面食 , 新世界百货 富乐路5-8号,104.75010685077257,31.4721314760534
18021439,MOMO喜多,4.0,0.0,7.9,8.1,7.9,51 条点评,面包甜点 , 涪城万达广场 花园路9号万达广场三号入口1楼,104.7268384321139,31.459370569363184
18022038,袁记串串香(西山店),4.0,0.0,8.4,8.3,8.4,136 条点评,火锅 , 涪城区 涪城区西山东路83号,104.74996733507216,31.484816319917062
18022345,ice森林鲜榨果汁店,4.0,0.0,8.5,8.6,8.6,43 条点评,咖啡厅 , 跃进路 跃进路4号长虹国际城缤纷时代商城1楼A11号商铺ice森林鲜榨果汁店,104.74806541916215,31.47457977143223
18032347,北坝镇滨江会所,3.0,0.0,7.1,6.8,7.1,1 条点评,烧烤 , 三台县中心城区 涪江桥头,滨江名都后门旁,105.10793843175306,31.098071478563828
18032531,四季渔歌,4.0,0.0,8.5,8.4,8.3,23 条点评,火锅 , 南河 南河坝宏杰花园后大门,104.75731751137234,31.457137297414082
18040159,芙蓉汉城合川菜,3.0,0.0,7.5,7.5,7.5,3 条点评,川菜 , 五里堆 芙蓉汉城3期河边,104.77815529767702,31.481635925210814
18051653,汤姆叔叔西餐厅,3.0,0.0,6.9,7.1,7.5,3 条点评,西餐 , 涪城区 西科大老区外,104.67051389601079,31.435734812546766
18068944,一点味(勇拓小店),3.0,0.0,7.3,7.3,7.4,17 条点评,快餐简餐 , 东方红大桥 勇拓路2-10号,104.75792328369299,31.471139021669728
18068983,一点味(国际城店),3.0,0.0,6.9,7.3,7.2,28 条点评,快餐简餐 , 跃进路 剑南路长虹国际城4楼,104.75058065123415,31.47507425141395
18068996,一点味(火炬东街店),3.0,0.0,7.2,7.4,7.2,3 条点评,快餐简餐 , 布鲁斯国际 高新区火炬东街店,交警四大队旁边,104.6843656771441,31.476503793986918
18068998,一点味(桃园路店),3.0,0.0,7.5,7.7,7.4,14 条点评,快餐简餐 , 人人乐/崇尚国际 桃园路197号,104.74100931921181,31.467848126813422
18078041,一点味(三鹏分店) 分店,3.0,0.0,7.5,7.7,7.6,57 条点评,快餐简餐 , 步行街 涪城路60号,104.75684183165563,31.462759733658917
18078063,一点味(金柱园店) 分店,3.0,0.0,7.6,7.7,7.7,21 条点评,快餐简餐 , 东方华尔街 长虹大道103号,104.74437313648212,31.473880519433525
18078075,一点味(越王楼店) 分店,3.0,0.0,7.6,7.8,7.7,26 条点评,快餐简餐 , 开元场 东方红大桥桥头,碧水公寓,104.76460527173741,31.474534969231605
18078081,一点味(科学城店) 分店,4.0,0.0,7.6,7.9,8.0,42 条点评,快餐简餐 , 六里村 中经路48号银杏叶商务酒店一楼,104.76889311030952,31.499532048766003
18078120,一点味(永兴分店) 分店,3.0,0.0,7.5,7.6,7.5,9 条点评,快餐简餐 , 高新区 永兴镇兴亚路14号,都得利综合市场对面,104.63872007926558,31.46702365290244
18078131,一点味(万达广场店) 分店,3.0,0.0,7.3,7.5,7.4,12 条点评,快餐简餐 , 涪城万达广场 金菊街32号,泰和楼,104.72829351546372,31.461472420132147
18078177,一点味(红星街店) 分店,3.0,0.0,7.5,7.6,7.6,4 条点评,快餐简餐 , 马家巷 红星街60号,104.76177400141411,31.461872648227633
18079312,天悦湘粤花园餐厅,3.0,0.0,7.2,7.3,7.1,16 条点评,粤菜 , 高水 高水中央广场,104.74418229327314,31.501463241006604
18105545,冲冲糕,3.0,0.0,7.4,7.1,7.3,7 条点评,小吃面食 , 步行街 马家巷,104.75488769018823,31.4707878758284
18105585,吉鼓奶茶,3.0,0.0,7.2,7.2,7.3,5 条点评,面包甜点 , 步行街 马家巷,104.75488769018823,31.4707878758284
18110023,一点味(花园小区店),3.0,0.0,7.2,7.4,7.0,32 条点评,快餐简餐 , 花园小区 临园路西段15号,104.72922832271979,31.464336717963484
18110699,好得火锅,3.0,0.0,7.3,7.2,7.9,24 条点评,火锅 , 涪城万达广场 临园路西段30号新世界宾馆1楼,104.72678198888379,31.464280698355758
18121225,红番茄竹菌汤锅,3.0,0.0,7.5,7.1,7.1,2 条点评,川菜 , 高水 跃进路北段78号,104.74983849817096,31.496365444048422
18124454,联首兄弟火锅(园艺山店),4.0,0.0,8.7,8.8,9.1,99 条点评,火锅 , 东方华尔街 九州大道中华坊88-3号,104.72681398113622,31.49365235826197
18131011,三江王记大虾,3.0,0.0,6.7,7.0,6.3,14 条点评,其他 , 南河 滨河北路东段,106.78197185156559,31.856823466391344
18135465,台湾豪大大鸡排冰茶,4.0,0.0,7.8,7.9,8.1,86 条点评,快餐简餐 , 步行街 卫生巷中央美地(清真寺背后),104.75768280281643,31.46340973666104
18138112,来两碗,3.0,0.0,7.2,6.9,7.2,5 条点评,川菜 , 太平镇 太平路308号,108.04251842574344,32.07341241987527
18142922,原味地图科委(立交店),3.0,0.0,7.3,7.4,7.4,8 条点评,快餐简餐 , 人人乐/崇尚国际 科委立交桥长虹大道中断115号,104.74539082320115,31.471786395948207
18143089,三之首干锅王(文兴二店),4.0,0.0,8.0,7.5,7.7,72 条点评,川菜 , 南河 文兴街19号,104.75995221089072,31.457062104249655
18143350,Lisa Coffee,4.0,0.0,8.5,8.5,8.6,22 条点评,咖啡厅 , 涪城万达广场 花园南街6号丽景花城2期门面一搂,104.71888800704532,31.457397921349372
18144781,茶百道（天津桥）(天津桥),3.0,0.0,7.5,7.5,7.6,35 条点评,面包甜点 , 步行街 天津桥下面(原麻辣诱惑火锅)1楼,104.75727201848639,31.464713429091304
18144803,逃跑的咖啡豆,4.0,0.0,8.6,9.0,9.1,57 条点评,咖啡厅 , 涪城万达广场 涪城区万达商业街a2区5栋21号（广场三号门往河堤方向50米）,104.72683031502531,31.459082603005047
18172018,蜀鼎香火锅,3.0,0.0,6.9,6.9,7.0,1 条点评,火锅 , 御营坝 滨河路东段89-6号老茶树河提,104.73159539367079,31.45792292368279
18179585,遇见网咖,3.0,0.0,7.2,7.2,7.2,2 条点评,快餐简餐 , 普明 普明中路203(西点超市2楼),104.69054214286447,31.477006000600394
18179933,墙墙猫,3.0,0.0,7.2,7.4,7.4,5 条点评,咖啡厅 , 人民公园 爱喜嘉年华A座2楼,104.75441125858981,31.465593803100873
18183728,荷塘月色,2.0,0.0,5.9,6.1,5.9,12 条点评,茶馆 , 五里堆 一环路东段堂宏国际,104.77761168809766,31.489323790077258
18187757,思味思我进口食品(西科店),3.0,0.0,7.0,6.9,7.0,3 条点评,面包甜点 , 西科大 青义路,121.52972465401899,32.0112081697474
18201381,柴火鸡,3.0,0.0,7.6,7.6,7.6,1 条点评,川菜 , 老茶树 涪城区 滨河南路东段,104.73154755710578,31.457867129913794
18202397,三香悦特色中餐馆,3.0,0.0,7.6,7.9,7.7,12 条点评,川菜 , 圣水 九洲跃进路时代天骄3F3号,104.74882045123141,31.481513333806298
18202411,芋老头甜品店,3.0,0.0,7.3,7.3,7.3,6 条点评,面包甜点 , 长虹国际城 九洲跃进路1958,104.75058065123415,31.47507425141395
18203105,众里寻她千百度烤肉(江油店),3.0,0.0,6.6,6.6,6.9,3 条点评,烧烤 , 江油市其他 北大街东段10号,104.93314929992522,31.952426668806112
18203744,中天烤肉,3.0,0.0,7.6,7.5,7.6,26 条点评,烧烤 , 沈家坝 仙人路一段32号职业技术学院后勤服务中心1楼4号,104.79519295164046,31.498559183298166
18204629,大龙燚火锅(南河店) 分店,4.0,0.0,8.4,8.1,8.2,60 条点评,火锅 , 南河 体运村路8号,104.76075906171333,31.455983257482853
18211174,鲜芋仙(万达店) 分店,4.0,0.0,9.0,9.0,8.8,896 条点评,面包甜点 , 涪城万达广场 万达广场3楼,104.72671611075091,31.459551810130254
18213091,大龙燚火锅(滨江店) 分店,3.0,0.0,7.5,7.4,7.4,11 条点评,火锅 , 五一广场 滨江路公园大帝4-1-3,106.07101979625845,31.357415375316982
18216571,笑和耗儿鱼老柴房,4.0,0.0,8.5,8.7,8.7,29 条点评,川菜 , 老茶树 涪城区飞云大道-新老茶树,104.73182962503591,31.458069659711146
18221389,小小厨快乐餐厅,3.0,0.0,6.6,6.7,6.5,5 条点评,快餐简餐 , 五一广场 跃进路1958对面天骄摩尔商场3楼,104.75255314508311,31.48802890659129
18221670,金川鞋业,3.0,0.0,7.3,7.3,7.3,1 条点评,川菜 , 塘汛 塘汛中三市场,119.79003637605952,32.68021431425743
18224474,让鸭脑壳飞,4.0,0.0,7.9,7.6,7.8,63 条点评,小吃面食 , 高水 高水南街,104.74749487928189,31.501304875242283
18224672,1981烤脑花,4.0,0.0,8.2,7.8,8.0,39 条点评,小吃面食 , 步行街 马家巷,104.75488769018823,31.4707878758284
18231355,伯爵时光西点店,4.0,0.0,8.2,8.1,8.1,49 条点评,面包甜点 , 凯德广场 临园路东段凯德广场1期2楼,104.74781245633054,31.470407279466674
18232014,华莱士(梓潼县餐厅),4.0,0.0,8.3,8.3,8.1,90 条点评,快餐简餐 , 文昌镇 文昌镇三圣路西十字华联超市1楼,105.16769025580058,31.638822415406082
18233726,爱达乐(开元店),4.0,0.0,8.3,8.3,8.1,83 条点评,面包甜点 , 梓潼县中心城区 潼鑫商业广场,105.170199038039,31.640259206602863
18234582,皇城冒菜,3.0,0.0,7.0,7.0,7.0,1 条点评,川菜 , 御营坝 中环时代购物广场2楼,104.75866165129675,31.467963741223922
18234817,爱达乐(科学城花园店),4.0,0.0,8.6,8.8,8.5,64 条点评,面包甜点 , 涪城区 绵山路科学城花园综合楼1楼5号,104.67051389601079,31.435734812546766
18238730,麻辣空间火锅(翠花街店),4.0,0.0,8.8,8.8,8.5,198 条点评,火锅 , 步行街 翠花街四中旁光明华都2楼,104.76051759539564,31.467536625531267
18240051,雨春谷中餐馆,5.0,0.0,9.1,9.0,9.1,77 条点评,川菜 , 双碑 四川省绵阳市高新区双碑东街27号（双碑10队）,104.70165823607567,31.466571420285007
18244497,手握V披萨,3.0,0.0,7.4,7.3,7.6,16 条点评,西餐 , 跃进路 跃进路1958号,117.7510439539364,39.04333144621436
18254152,柒味餐饮,3.0,0.0,7.0,7.0,6.8,8 条点评,川菜 , 双碑 高新区绵兴东路86号,104.69126431581651,31.471597206756215
18254172,黑元素粗粮汤锅(高新区店) 分店,3.0,0.0,7.0,7.0,7.0,1 条点评,火锅 , 高新区 高新区绵兴东路南段,104.6843656771441,31.476503793986918
18269473,蜜尚烧烤,3.0,0.0,7.0,7.0,7.0,2 条点评,烧烤 , 三台县其他 建设街青少年宫对面,105.0739556196496,30.95478482644267
18275648,冰点凉糕(通安巷店),4.0,0.0,8.3,8.1,8.2,173 条点评,小吃面食 , 凯德广场 沿江东街53-10号,104.74725263233671,31.46799846786851
18275815,春天味道,4.0,0.0,8.4,8.4,8.5,63 条点评,川菜 , 高新区 高新区布鲁斯国际新城,104.66971215834313,31.469223286011974
18276717,黄家土灶柴火鸡,3.0,0.0,6.8,6.9,6.8,14 条点评,其他 , 老茶树 洞天公园一号美食广场内,104.73154755710578,31.457867129913794
18297111,乐可斯意大利冰淇淋(绵阳店),3.0,0.0,6.8,6.8,7.0,1 条点评,面包甜点 , 步行街 马家巷红星金座13号,104.76135780389507,31.461868424234478
18312067,华莱士(御营坝御林街店),3.0,0.0,6.4,6.8,6.6,3 条点评,快餐简餐 , 御营坝 御营坝御林街旺客隆超市旁,104.74694405181776,31.460787789031052
18314193,星州湾海鲜大排档,3.0,0.0,6.3,6.4,6.4,6 条点评,其他 , 园艺山 园艺山奥林春天商业街华润中央公园正对面,104.7223922070092,31.49106548043401
18315519,杂粮中餐馆,3.0,0.0,7.2,7.2,7.2,1 条点评,川菜 , 北川羌族自治县其他 巴拿恰禹王东街17号,104.2583863746502,31.962374271603874
18323310,美E串(高水店) 分店,4.0,0.0,8.4,8.4,8.2,37 条点评,火锅 , 高水 高水南街22号,104.74774711807927,31.49595796674858
18323323,美E串(解放街店) 分店,4.0,0.0,8.4,8.5,8.5,49 条点评,火锅 , 南河 解放街38号一中后巷子里,113.16514060265443,27.831182398822705
18323332,美E串(文兴店) 分店,4.0,0.0,8.2,8.2,8.1,3 条点评,火锅 , 南河 文兴街150号,105.29112098997015,29.34558194321804
18323344,美E串(二桥店) 分店,4.0,0.0,8.7,8.6,8.5,78 条点评,火锅 , 五里堆 一环路北段26号,104.7394190489675,31.486410611908386
18324317,猫扑渔楽,3.0,0.0,7.3,7.3,7.2,2 条点评,其他 , 涪城区 临园路东段74号凯德广场5楼,104.74781245633054,31.470407279466674
18324785,乔东家脆皮火烧,4.0,0.0,7.8,7.5,8.3,250 条点评,小吃面食 , 人民公园 绵阳电影院斜对面,104.7542011063039,31.467296441196666
18324847,味绝美蛙鱼头(绵阳店),4.0,0.0,8.6,7.4,7.6,16 条点评,火锅 , 涪城区 体运村72号发改委旁,104.76702981627496,31.455814777347907
18336776,私家小灶,3.0,0.0,7.1,7.2,7.1,5 条点评,湘菜 , 高新区 高新区磨家镇后街,104.55815932248636,31.466821142662273
18338580,醇葡MellowWines,3.0,0.0,7.1,7.1,7.0,2 条点评,酒吧 , 园艺山 科园路27-28号(人工湖对面),108.27885608058834,22.849386136293234
18351551,壹鼎旺冷锅香串串,3.0,0.0,7.1,7.1,7.1,1 条点评,火锅 , 游仙区 海天名苑后门,104.76790573870653,31.486048296404928
18358224,康二姐冷热锅串串香,4.0,0.0,7.9,7.8,8.0,29 条点评,火锅 , 御营坝 御营坝御安街5号,104.7457400798919,31.461960735851893
18363017,九三爆炒,3.0,0.0,6.6,6.1,6.4,4 条点评,其他 , 涪城区 御苑巷3-34号,104.74453366726998,31.459472305956012
18363528,香鹅掌,3.0,0.0,7.3,7.2,7.4,8 条点评,其他 , 御营坝 长虹大道南段82号,104.75260850944831,31.455191635123555
18386490,老k稀饭庄,3.0,0.0,6.9,6.9,6.9,2 条点评,其他 , 涪城区 西南科技大学新区外,104.71197227361905,31.540392681028347
18387761,一米阳光,3.0,0.0,7.2,7.4,7.2,3 条点评,咖啡厅 , 游仙区 芙蓉路,104.77327973374194,31.469989147095056
18388416,麦当劳,3.0,0.0,7.6,7.6,7.3,13 条点评,快餐简餐 , 新世界百货 新世界百货店,116.42418180186172,39.90448873450753
18393783,重庆老麻抄手,3.0,0.0,7.2,7.2,7.2,2 条点评,川菜 , 涪城区 西南科技大学新区外,104.71197227361905,31.540392681028347
18393812,石烹菜(新区店),3.0,0.0,7.5,7.3,7.3,6 条点评,其他 , 涪城区 西南科技大学新区外,104.71197227361905,31.540392681028347
18393853,乔东家脆皮火烧,3.0,0.0,7.0,6.9,7.0,2 条点评,小吃面食 , 西科大 西南科技大学新区外,104.70234598775717,31.54051373039241
18395774,双流老妈兔头,4.0,0.0,8.4,8.3,8.3,25 条点评,川菜 , 高水 神州大酒店旁边,104.74749487928189,31.501304875242283
18442447,三之首(百盛店),3.0,0.0,7.1,7.1,7.1,2 条点评,其他 , 涪城区 长兴街百盛购物中心旁,104.75469572230074,31.46479432188935
18442453,千百度烤肉(江油店),3.0,0.0,7.0,7.4,7.4,3 条点评,自助餐 , 太平镇 诗仙路摩尔玛购物中心,104.75071038990572,31.78349543072142
18475644,众里寻她千百度自助烤肉(弥江路...,3.0,0.0,7.1,7.1,7.0,4 条点评,自助餐 , 云溪镇 弥江路484号,105.39642538596428,31.226337939968815
18475720,火焰山西昌火盆烧烤精品店(芙蓉...,3.0,0.0,6.8,6.8,6.8,1 条点评,烧烤 , 芙蓉汉城 一环路东段芙蓉汉城3期,104.77715991768042,31.48034850881913
18479141,你的小院子餐吧,3.0,0.0,7.5,7.7,7.5,12 条点评,川菜 , 御营坝 滨河南路东段阳光曼哈顿1期靠河边,104.75196092459939,31.460469035294405
18485427,锅中捞自助火锅城,4.0,0.0,8.3,8.3,8.4,33 条点评,火锅 , 江油市中心城区 太平镇问月路154号,104.7466015405031,31.775567628260482
18487712,乌托邦茶楼,3.0,0.0,7.6,7.6,7.6,2 条点评,茶馆 , 含增镇 含增镇中心,104.59787817998306,31.832808774644914
18488059,汉堡王(绵阳茂业餐厅),4.0,0.0,8.6,8.8,8.8,780 条点评,快餐简餐 , 人民公园 公园路1号茂业百货兴达店1楼113号商铺,104.75736309229222,31.467204496175004
18489938,香港鸡蛋仔,3.0,0.0,6.9,6.9,6.9,1 条点评,小吃面食 , 涪城区 西南科技大学新区外,104.71197227361905,31.540392681028347
18489996,王大娘小吃,3.0,0.0,7.0,7.0,7.0,16 条点评,小吃面食 , 西科大 西南科技大学新区外,104.70234598775717,31.54051373039241
18491362,虾龙王成都盆盆虾,3.0,0.0,7.6,7.0,7.0,23 条点评,川菜 , 老茶树 御旗路24号,104.74254475149797,31.462042200882262
18495744,蒋记干锅,3.0,0.0,6.8,6.7,6.8,2 条点评,川菜 , 涪城区 西南科技大学新区外,104.71197227361905,31.540392681028347
18504482,骨汤烩面,3.0,0.0,7.6,7.5,7.5,3 条点评,东北菜 , 涪城区 西南科技大学新区,104.71197227361905,31.540392681028347
18506553,贵妃客国美电器店,3.0,0.0,7.0,7.1,7.0,17 条点评,面包甜点 , 步行街 国美电器旁,104.75488769018823,31.4707878758284
18516139,贵妃客人民公园店,3.0,0.0,7.4,7.4,7.4,9 条点评,面包甜点 , 人民公园 人民公园旁,116.8610198797501,40.48043876949942
18516711,和记粥道,4.0,0.0,8.0,8.2,7.6,33 条点评,快餐简餐 , 南河 南河东街南河花园10栋1楼6号,104.7693987018031,31.459133950993216
18521298,一休小米辣,4.0,0.0,8.1,7.9,7.7,17 条点评,自助餐 , 西科大 青义镇青阳中路十一号,120.4430941800459,30.53565810341105
18522162,三碗不过岗(高水店),3.0,0.0,7.7,8.0,7.6,53 条点评,川菜 , 高水 高水南街,104.74749487928189,31.501304875242283
18522245,绿草源牛肉汇,4.0,0.0,7.9,8.0,8.2,39 条点评,川菜 , 高水 长虹大道北段58号,104.74628902001616,31.491559421488525
18522738,绵阳哥佬会火锅店,3.0,0.0,7.0,7.0,7.1,21 条点评,火锅 , 桃园路 剑南路西段79号,104.74032018503814,31.473218023517077
18523058,绵阳雕刻时光茶楼,3.0,0.0,7.3,7.3,7.3,3 条点评,茶馆 , 天骄摩尔 绵阳市涪城区跃进路131号福星时代天骄7号楼4楼（13号观光电梯）,104.7471720094172,31.482104417374643
18525915,鸡哥江湖烧菜烧烤,3.0,0.0,7.1,7.1,7.1,2 条点评,烧烤 , 普明 高新区双碑中街66号,104.69529750184434,31.475104981752533
18525923,老几新概念烧烤,3.0,0.0,7.5,7.5,7.5,3 条点评,烧烤 , 普明 高新区双碑中街66-5,104.69529750813247,31.47531498357312
18525942,鑫缘烧烤,3.0,0.0,6.7,7.3,7.5,7 条点评,烧烤 , 普明 高新区双碑中街55-57号,104.69477946342963,31.47352838528143
18525954,鑫源碟串串香,3.0,0.0,7.4,7.4,7.9,3 条点评,川菜 , 高水 跃进路北段83号长虹世纪城21栋1-2、3号,104.7474475646324,31.4982365085566
18528285,重庆太翁鱼坊,3.0,0.0,7.2,7.0,6.6,29 条点评,火锅 , 桃园路 剑南路西段79号,104.74032018503814,31.473218023517077
18530141,苏珊客厅,3.0,0.0,7.4,7.2,7.1,2 条点评,咖啡厅 , 人民公园 兴达街2号电影院2楼,104.75775238556123,31.46755742049782
18531619,韩轩坊自助烤肉,3.0,0.0,7.2,7.2,7.2,1 条点评,自助餐 , 园艺山 高新区上马新村南街100号,102.72541106521602,25.08253680738314
18542029,王子大酒店餐厅,3.0,0.0,7.3,7.6,7.4,10 条点评,川菜 , 涪城区 涪城区 临园路西段25号 （近火车站）,104.7248793337967,31.46318393699836
18564759,酒鬼石锅耗儿鱼庄,3.0,0.0,7.1,7.1,7.2,11 条点评,川菜 , 御营坝 御营坝代家湾高架桥旁,104.74694405181776,31.460787789031052
18564766,乡村铁板烧(五里堆店),3.0,0.0,7.7,7.1,7.4,2 条点评,烧烤 , 五里堆 五里堆路,104.76505102889756,31.486743566677983
18597123,渝宗老灶火锅,4.0,0.0,8.2,8.3,8.3,78 条点评,火锅 , 沈家坝 沈家坝东津路12号,104.77424226270607,31.47305396441433
18600469,虾皇,4.0,0.0,7.7,7.4,7.2,22 条点评,川菜 , 开元场 芙蓉汉城3期49-1号河堤旁,104.78083870152355,31.484044432404254
18620968,伟伟鸭脑壳(芙蓉店),3.0,0.0,7.1,7.1,7.2,4 条点评,川菜 , 芙蓉汉城 芙蓉汉城3期河堤,104.77715991768042,31.48034850881913
18630440,结义梁山鸡 分店,3.0,0.0,7.5,6.9,6.4,3 条点评,火锅 , 双碑 高新区普明北路东段552号,104.69794402216492,31.475923327620905
18630933,贵州花溪牛肉米线,3.0,0.0,7.3,7.3,7.3,1 条点评,小吃面食 , 马家巷 解放街5-3号,104.76263154361665,31.462052226359305
18631550,乡村基(绵阳临园东路餐厅) 分店,3.0,0.0,7.3,7.3,7.3,6 条点评,快餐简餐 , 人民公园 临园路东段路54号临园商务大厦二楼,104.75661719239675,31.46984532026815
18637459,结义梁山鸡,3.0,0.0,6.9,6.9,6.9,1 条点评,其他 , 游仙区 五里堆路,104.77145563367509,31.48644792784487
18661454,光头鸭脖,4.0,0.0,8.4,8.2,8.4,104 条点评,小吃面食 , 西科大 西南科技大学新区小铁门口,104.70234598775717,31.54051373039241
18669357,虾皇,4.0,0.0,8.1,7.7,7.7,8 条点评,川菜 , 涪城区 洞天公园一号美食广场内,104.73269851373534,31.45790913732539
18674302,宫喜老火锅,3.0,0.0,7.2,7.0,7.3,8 条点评,火锅 , 开元场 开元路24号,104.7667545943311,31.473759842013017
18676678,王家肥肠粉,3.0,0.0,7.0,6.9,6.9,1 条点评,小吃面食 , 南湖 涪城区六一堂路626附143,104.77135109247305,31.428767916721885
18679509,鱼摆摆,3.0,0.0,6.8,6.8,6.8,1 条点评,火锅 , 东方华尔街 长虹大道中段天籁一品一楼,104.74430169873644,31.485086094438103
18688960,砂锅居,3.0,0.0,6.9,6.9,6.9,1 条点评,其他 , 游仙区 大西街,104.86712925508289,31.637083841304957
18704503,梁记夜来香串串,3.0,0.0,7.2,7.1,7.2,2 条点评,火锅 , 梓潼县其他 步行街,105.1938341844829,31.653620996937434
18705019,小厨房,4.0,0.0,7.8,7.7,7.9,13 条点评,烧烤 , 老茶树 涪城区 洞天公园一号美食广场内,104.73154755710578,31.457867129913794
18706078,夜不归烧烤,3.0,0.0,7.0,6.9,6.9,1 条点评,烧烤 , 涪城区 滨江广场,104.76343380948795,31.47004970379568
18707440,铁锅荤豆花,3.0,0.0,7.5,7.5,7.5,3 条点评,小吃面食 , 涪城区 西南科技大学台球一条街,104.70234598775717,31.54051373039241
18707450,食字路口,3.0,0.0,6.9,6.9,6.8,1 条点评,川菜 , 涪城区 西南科技大学新区外,104.71197227361905,31.540392681028347
18707462,韩国纸上烤肉,3.0,0.0,6.9,7.0,7.0,11 条点评,韩国料理 , 涪城区 西南科技大学新区外烧烤广场,104.71197227361905,31.540392681028347
18707515,兰州拉面,3.0,0.0,6.9,6.9,6.9,1 条点评,清真菜 , 涪城区 西南科技大学小东门外,104.70234598775717,31.54051373039241
18707519,路尚,3.0,0.0,6.9,6.9,6.9,1 条点评,咖啡厅 , 涪城区 西南科技大学新区外,104.71197227361905,31.540392681028347
18716177,花半里t6火锅(塘汛店),2.0,0.0,6.5,6.4,5.8,4 条点评,火锅 , 塘汛 塘汛西路19号,104.79444897501712,31.403681927146728
18720096,升钟湖生态鱼庄,3.0,0.0,6.8,6.6,6.6,3 条点评,自助餐 , 芙蓉汉城 芙蓉汉城3期44幢1楼3号,104.77959971544551,31.483236126397326
18765784,何福记鸭脖王(开元店) 分店,4.0,0.0,7.8,7.8,7.8,20 条点评,小吃面食 , 涪城区 开元北街11-14号涪江派出所侧,104.67051389601079,31.435734812546766
18770010,石棉埋伏,3.0,0.0,7.6,7.5,7.6,6 条点评,烧烤 , 涪城区 绵阳涪城区机场西路,104.75211557238447,31.44130921002204
18816789,虾一跳,3.0,0.0,7.0,7.0,6.8,27 条点评,火锅 , 涪城区 跃进路131号天骄摩尔广场7号楼一层C1-C2号,104.74737699914137,31.482675227804823
18817339,武汉风味鸭脖,3.0,0.0,7.1,7.0,7.1,4 条点评,小吃面食 , 沿江路 通安巷9-1,104.74768528771102,31.468439355293224
18817346,鸭血粉丝,3.0,0.0,7.1,7.0,7.1,5 条点评,小吃面食 , 沿江路 沿江东街4-10,104.74632069606506,31.467560052573873
18817448,德克士,3.0,0.0,7.2,7.2,7.2,1 条点评,快餐简餐 , 跃进路 跃进路中段,113.21299912763247,22.932683864088773
18879585,一点味餐厅(江油沃尔玛店),3.0,0.0,7.2,7.3,7.3,2 条点评,其他 , 江油市中心城区 涪江路中段沃尔玛超市1楼,104.75391551701615,31.78108464930815
18934920,清舟小馆(万达店),4.0,0.0,8.4,8.6,8.4,278 条点评,小吃面食 , 涪城万达广场 绵阳市涪城万达公馆2栋4号商铺,104.72798784186139,31.460637860890312
18973131,三千座美食广场,3.0,0.0,6.6,6.8,6.6,6 条点评,川菜 , 凯德广场 凯德广场沃尔玛5楼（科委立交桥旁）,104.75731335760764,31.467544165021955
18977613,莱斯餐厅,3.0,0.0,6.9,7.0,7.1,2 条点评,快餐简餐 , 人民公园 茂业百货三楼,119.61110562608764,39.93774551575705
18979296,何福记鸭脖王(红宝石店),3.0,0.0,7.4,7.3,7.3,5 条点评,小吃面食 , 人民公园 红宝石大厦后面龙抄手对面,104.7542011063039,31.467296441196666
18980791,六月雪(高水店),5.0,0.0,9.1,9.0,9.0,225 条点评,火锅 , 高水 跃进路长虹世纪城,104.74749487928189,31.501304875242283
18981281,鲜芋坊,4.0,0.0,7.7,7.9,8.0,83 条点评,面包甜点 , 长虹国际城 长虹国际城步行街,104.75488769018823,31.4707878758284
18982212,龙记斑鱼庄,3.0,0.0,7.0,7.3,7.3,4 条点评,火锅 , 跃进路 西山东路77号,104.7480634392968,31.484574450170847
18982229,山珍宝(南河店),3.0,0.0,7.3,7.5,7.2,6 条点评,火锅 , 南河 体运村路2号嘉益安江名园1幢,104.75727505655563,31.456116268329147
18987782,必胜客(新世界店) 分店,4.0,0.0,8.3,8.6,8.4,97 条点评,快餐简餐 , 新世界百货 临圆路东段72号新益大厦一、二楼,104.7492459632803,31.470027253479735
18990368,毛椒火辣串串香,4.0,0.0,8.0,8.0,8.0,21 条点评,火锅 , 普明 高新区双碑中街61号,104.69494653118667,31.47622823812084
18997796,龙虾传奇,3.0,0.0,7.5,7.4,7.5,17 条点评,川菜 , 芙蓉汉城 仙人路芙蓉汉城三期河堤,104.77715991768042,31.48034850881913
19001025,烤味佳拷猪蹄 分店,4.0,0.0,8.9,8.4,8.8,876 条点评,快餐简餐 , 马家巷 绵州大剧院背后马家巷11号,104.76090393952767,31.462545454789613
19078100,可可口煲仔饭,3.0,0.0,7.2,7.1,7.0,3 条点评,快餐简餐 , 南湖 经开区板桥社区一组六一堂路,120.84453542647287,30.71635792123517
19085124,奶酷-奶品专家(南河店),4.0,0.0,7.9,7.8,7.8,13 条点评,面包甜点 , 南河 涪城区南河东路8-11号[巡特警一大队旁],104.76903564264818,31.458980653292194
19085397,重庆666土灶火锅,3.0,0.0,7.6,7.4,7.5,8 条点评,火锅 , 园艺山 绵阳园艺山富临山庄后门,104.68753153393087,31.487200224862004
19119708,爱上榴莲,4.0,0.0,8.4,8.2,8.2,78 条点评,面包甜点 , 人民公园 临园路东段53号一代天骄1楼13号,104.75527780361018,31.46894889935698
19124047,结义梁山鸡(绵阳机场店) 分店,3.0,0.0,7.0,6.9,6.8,2 条点评,火锅 , 塘汛 机场西路10号,113.35198888348202,22.056771866734906
19130723,巷子咖啡(巷子咖啡屋) 分店,4.0,0.0,7.8,7.9,7.9,17 条点评,咖啡厅 , 马家巷 红星街红星金座12号门面,104.76106163167012,31.462151464924666
19140489,九九豆腐脑(万达广场店),4.0,0.0,8.2,8.2,8.2,243 条点评,快餐简餐 , 涪城万达广场 万达商业街6-2号,104.72683031502531,31.459082603005047
19151483,茶物语,4.0,0.0,8.2,8.3,8.3,82 条点评,面包甜点 , 长虹国际城 长虹国际广场1F屈臣氏旁,104.74856415838128,31.474363695975143
19152095,联首兄弟火锅(高新店),5.0,0.0,9.1,9.1,9.2,216 条点评,火锅 , 双碑 双碑中街46号,104.69506187541077,31.471583644566117
19158024,烤鸭,3.0,0.0,7.0,7.0,7.0,1 条点评,其他 , 高新区 双碑中街普明南路东段62栋17号,104.68839361527115,31.47533437767599
19163012,乐优品,4.0,0.0,7.8,7.8,7.9,10 条点评,面包甜点 , 步行街 临园路东段41-5号,104.75911011864464,31.468696665703668
19163687,串根香麻辣涮串串香,4.0,0.0,7.8,7.8,7.8,24 条点评,火锅 , 御营坝 御营坝河堤老茶树啤酒广场对面,104.74694405181776,31.460787789031052
19163706,御海丰温州海鲜城,4.0,0.0,8.1,8.1,7.9,23 条点评,其他 , 老茶树 滨河路南路东段91号,104.74273432809619,31.462755306801807
19165214,盒作社(天骄摩尔),3.0,0.0,7.7,7.7,8.1,153 条点评,川菜 , 跃进路 涪城区跃进路摩尔天骄3F,104.74751716624161,31.47930781155509
19174753,九逸八特色中餐馆,3.0,0.0,6.9,6.6,6.9,5 条点评,川菜 , 老茶树 御旗路21号,104.74213199987886,31.462394903911566
19176252,苏稽发跷脚牛肉(江油店),3.0,0.0,7.5,7.5,7.5,1 条点评,川菜 , 江油市中心城区 涪江路中段虹桥步行街35-37号,104.75391551701615,31.78108464930815
19189122,杰克小镇,3.0,0.0,6.4,6.4,6.4,4 条点评,面包甜点 , 天骄摩尔 跃进路131号天骄摩尔广场六楼,104.74737699914137,31.482675227804823
19191334,签签会,4.0,0.0,8.0,8.8,8.1,84 条点评,川菜 , 涪城万达广场 火车站万达广场花园南街55号泰和楼1层,104.72829351546372,31.461472420132147
19192448,普吉8号泰式海鲜自助火锅,4.0,0.0,8.8,9.0,9.0,653 条点评,东南亚菜 , 涪城万达广场 万达广场3楼3029-3030,104.72671611075091,31.459551810130254
19192820,one's day怡·易生活馆,3.0,0.0,7.1,7.3,7.3,11 条点评,咖啡厅 , 涪城区 商业街6-8号,104.70762773890299,31.487589426095965
19193387,陈稀饭,3.0,0.0,6.9,7.1,6.9,4 条点评,快餐简餐 , 高水 跃进北路,104.74749487928189,31.501304875242283
19195663,龙湖粥王,4.0,0.0,8.0,7.9,7.9,100 条点评,快餐简餐 , 人民公园 百盛旁,114.89585178317357,40.830985167512395
19198139,淳香阁,3.0,0.0,7.1,7.1,7.1,2 条点评,小吃面食 , 沈家坝 沈家坝北街60幢5号,104.78535336223692,31.469739403376742
19205712,黄记煌三汁焖锅(黄记煌),5.0,0.0,9.1,9.1,9.1,588 条点评,火锅 , 凯德广场 涪城区临园路东段凯德广场5楼,104.74781245633054,31.470407279466674
19210744,黑元素粗粮汤锅(高水南街店) 分店,3.0,0.0,7.7,7.6,7.6,2 条点评,火锅 , 涪城区 高水南街,104.74577595462074,31.495420554874286
19212415,黑元素粗粮汤锅,4.0,0.0,7.8,7.8,7.6,5 条点评,川菜 , 涪城区 长虹大道南段御南街1号,104.7519876321205,31.452560278071235
19264787,永胜小火锅,3.0,0.0,7.0,6.9,7.0,1 条点评,火锅 , 江油市其他 江油市老北站巷子里,104.93314929992522,31.952426668806112
19266583,围爐聚火锅,3.0,0.0,7.3,7.6,7.5,7 条点评,火锅 , 布鲁斯国际 高新区虹阳街11号,104.675583979021,31.471310773643456
19271372,老瓦房火锅,4.0,0.0,7.7,7.6,7.8,21 条点评,火锅 , 御营坝 长虹大道南段102号,104.75298548694879,31.453801602917032
19271666,蜀香阁自助火锅,3.0,0.0,6.8,6.8,6.8,4 条点评,自助餐 , 高水 跃进路北段69-3号,104.74907610269142,31.4936811736187
19272023,弗爵士英伦甜品,3.0,0.0,7.4,7.4,7.4,5 条点评,面包甜点 , 五里堆 绵山路34号香榭里大道快乐购超市1-4号,104.76462675920521,31.484289296252953
19272925,农家柴房,3.0,0.0,7.3,6.8,7.1,3 条点评,川菜 , 老茶树 御营坝飞云大道东段加气站上行30米,104.73154755710578,31.457867129913794
19275172,风车斗转面庄,3.0,0.0,7.4,7.2,7.2,3 条点评,小吃面食 , 涪城区 滨江路45号,104.75214256778254,31.483678329614364
19275338,碳来香三国烤肉(花荄店),4.0,0.0,8.6,8.9,8.8,58 条点评,韩国料理 , 花荄镇 安县花荄镇丽景云天,104.3687860107807,31.58918164277606
19278311,書与茶,3.0,0.0,7.6,7.6,7.6,3 条点评,咖啡厅 , 人民公园 时代大厦B1楼,104.75604873928022,31.46902928242622
19282798,非茶不可,4.0,0.0,7.7,7.8,7.7,4 条点评,面包甜点 , 步行街 城北街道涪城路26号西北,104.75683474941499,31.46861832473608
19283139,花儿串串,3.0,0.0,7.5,7.4,7.3,15 条点评,火锅 , 芙蓉汉城 治平路47号汇川汉城小区2期8幢5-8号,104.7729395113097,31.481291683405676
19285138,好酒好菜,3.0,0.0,7.3,7.3,7.6,5 条点评,其他 , 游仙区 小枧沟镇惠民街88号,104.82309168444888,31.429538249087464
19296314,南汉山城啤酒炸鸡,4.0,0.0,8.1,8.4,8.2,55 条点评,韩国料理 , 人民公园 安昌路18号爱喜嘉年华3楼,104.75459958833999,31.465900599146774
19298595,和源和创作料理,3.0,0.0,6.7,7.0,6.6,3 条点评,日本料理 , 五里堆 五里堆治平路,104.76505102889756,31.486743566677983
19306188,S+Bar,4.0,0.0,7.9,8.0,7.9,9 条点评,咖啡厅 , 涪城区 万达广场3号门步行街5-12,104.75488769018823,31.4707878758284
19326696,重庆临江门码头火锅,3.0,0.0,7.3,7.4,7.4,2 条点评,火锅 , 五一广场 五一名都大门口,104.75102161952763,31.48648356420991
19342461,茶物语(跃进路店),3.0,0.0,7.1,7.1,7.1,1 条点评,面包甜点 , 跃进路 跃进路4号长虹国际城1楼,104.75058065123415,31.47507425141395
19351450,古得香鸭王(平政店),3.0,0.0,7.4,7.3,7.4,3 条点评,其他 , 五一广场 平政一巷13-4号,104.74882869318448,31.487884208373917
19368923,爱达乐(东河店),3.0,0.0,7.7,7.7,7.7,3 条点评,面包甜点 , 潼川镇 东河路潼川银座对面,105.0763883414622,31.088692191122643
19368942,爱达乐(北泉店),5.0,0.0,9.1,9.1,9.1,173 条点评,面包甜点 , 三台县其他 北泉路北门市场旁,105.09542982935726,31.099595642841674
19368967,爱达乐(金牛大道店),4.0,0.0,8.6,8.4,8.4,135 条点评,面包甜点 , 潼川镇 潼川镇金牛大道11号,105.09043998928334,31.09001694833953
19369255,爱达乐(永兴二店),4.0,0.0,8.6,8.5,8.4,145 条点评,面包甜点 , 双碑 高新区永兴镇永发路263号,104.64548262555152,31.46694852096195
19369507,爱达乐(九九区店),4.0,0.0,8.3,8.4,8.4,41 条点评,面包甜点 , 游仙区 科学城九区公交车站台对面,104.76561271148549,31.511359618001705
19369545,爱达乐(六里村店),4.0,0.0,8.7,8.5,8.6,192 条点评,面包甜点 , 游仙区 六里村华兴南街8号,104.77720437931163,31.490309825351066
19370673,邓氏小吃(土豆店),3.0,0.0,7.7,7.6,7.6,7 条点评,小吃面食 , 三台县中心城区 小东巷,105.097896306796,31.098301030426295
19371039,高原聚蜀滇烤肉,4.0,0.0,7.9,7.5,7.5,14 条点评,烧烤 , 高水 高水路114号,104.74220864689819,31.49974056967921
19374185,石头寨,3.0,0.0,7.5,7.6,7.9,47 条点评,川菜 , 老茶树 滨河南路东段93号,104.73972303555209,31.461910711438048
19411498,御鲜坊乌鱼庄(园艺山店) 分店,4.0,0.0,8.2,7.8,8.0,20 条点评,川菜 , 园艺山 科创区园艺东街北段58号奥林春天2期,104.71500517220728,31.495558672699598
19414425,德克士(南湖店),4.0,0.0,7.9,7.9,7.6,15 条点评,快餐简餐 , 南湖 绵阳南湖车站一楼,120.84453542647287,30.71635792123517
19428283,品沫茶语 分店,3.0,0.0,6.9,6.6,7.4,7 条点评,面包甜点 , 跃进路 跃进路1958沃尔玛对面邮政亭,106.49434167421083,29.493288797375204
19428288,品沫茶语 分店,3.0,0.0,6.4,6.4,6.4,2 条点评,面包甜点 , 长虹国际城 跃进路口大润发对面邮政亭,104.75058065123415,31.47507425141395
19428290,品沫茶语 分店,3.0,0.0,6.9,6.9,6.9,1 条点评,面包甜点 , 东方华尔街 丝厂家属区门口邮政亭,104.74210596339196,31.483318767020936
19428330,品沫茶语 分店,3.0,0.0,7.0,6.7,6.7,1 条点评,面包甜点 , 人民公园 五牛大酒店邮政亭,104.74949794156908,31.468193421623745
19429113,蜀烩冒菜,3.0,0.0,7.1,7.1,7.1,2 条点评,川菜 , 永昌镇 永昌镇湔江路12_3,104.48204346581123,31.6174662727085
19430681,鲜爆虾,4.0,0.0,8.8,8.5,8.8,38 条点评,川菜 , 芙蓉汉城 绵阳游仙区芙蓉汉城3期,104.77715991768042,31.48034850881913
19438039,火锅工厂,4.0,0.0,8.5,8.2,8.6,39 条点评,火锅 , 富乐山公园 游仙区驿亭路19-7号恒信花园,104.77599619343464,31.47397136451504
19438770,最强大脑焗脑花,3.0,0.0,7.3,7.0,7.3,15 条点评,小吃面食 , 步行街 警钟街马家巷,104.75488769018823,31.4707878758284
19465948,麻辣辣冒菜,3.0,0.0,6.9,6.8,6.7,2 条点评,川菜 , 跃进路 长虹国际广场步行街跃进路6号,104.74834407353134,31.475999109187356
19467432,盐道,3.0,0.0,6.9,6.9,6.9,2 条点评,其他 , 凯德广场 沈家坝富乐中学后大门前行200米,114.18037776303096,35.98913073808949
19475290,巧手蛋挞,4.0,0.0,8.4,8.1,8.4,49 条点评,面包甜点 , 人民公园 马家巷正门入口处,115.91992929452854,28.686735873398884
19477750,星飲饮品,4.0,0.0,8.3,8.3,8.4,79 条点评,咖啡厅 , 西科大 西科大小铁门外青羊西街4号,104.70662183918448,31.546661495323203
19481863,西蜀大宅门(涪城路店),5.0,0.0,9.2,9.2,9.2,266 条点评,火锅 , 人民公园 涪城路169--3,104.75731079743694,31.46285339079467
19482763,成名面坊,3.0,0.0,7.5,7.2,7.4,3 条点评,小吃面食 , 潼川镇 北泉路32号清泉寺下,105.09476254556681,31.101844667763082
19485991,虾圣,3.0,0.0,7.6,7.5,7.3,4 条点评,其他 , 游仙区 芙蓉汉城三期河堤虾皇旁,104.77715991768042,31.48034850881913
19489109,舶宫Wedding Park,3.0,0.0,7.0,7.2,7.2,6 条点评,川菜 , 南山 长虹大道南段172号,130.28176460827774,47.29882093826236
19499969,乐天动力,3.0,0.0,7.4,7.5,7.6,5 条点评,其他 , 游仙区 绵山路32号电视塔内,104.7638747876628,31.48178690330084
19566261,小米椒串串,3.0,0.0,7.5,6.7,7.2,3 条点评,火锅 , 御营坝 御营二队,104.74694405181776,31.460787789031052
19572868,香酥鸡块,4.0,0.0,8.2,7.7,8.4,113 条点评,快餐简餐 , 涪城区 马家巷与孙家巷交汇处,104.76104351913612,31.462206035371384
19573926,刘记小吃,3.0,0.0,6.8,6.8,7.3,2 条点评,快餐简餐 , 富乐山公园 富乐山上富乐阁旁,104.78468349402152,31.477623239120227
19574971,青青草牛肉,3.0,0.0,7.1,7.1,7.1,1 条点评,小吃面食 , 高新区 磨家小区,118.79387678052295,32.02549778480882
19585611,农家芋儿肥肠鸡,3.0,0.0,6.8,6.3,6.8,1 条点评,火锅 , 五里堆 五里堆富临原山20栋1-103号,104.77118403010584,31.48663740620048
19587348,最佳鸡密,3.0,0.0,6.8,6.9,7.0,1 条点评,快餐简餐 , 东方红大桥 涪城路4号,104.75716853279333,31.473144874365804
19597156,金顺莱中韩烤肉,3.0,0.0,6.4,6.4,6.4,3 条点评,自助餐 , 火炬广场 飞云大道2号万豪尊平二期,104.65329268858758,31.45798705848726
19598272,潼江印象,3.0,0.0,7.0,7.0,7.0,1 条点评,其他 , 宏仁乡 宏仁乡五星村六社,105.15480583202348,31.667362712271725
19600682,何福记鸭脖王(长虹国际城店) 分店,3.0,0.0,7.2,7.1,6.7,4 条点评,小吃面食 , 跃进路 步行街,104.75488769018823,31.4707878758284
19619569,转角动力咖啡馆,4.0,0.0,7.7,7.7,7.6,2 条点评,西餐 , 高水 跃进北路77-7号,104.74880343732507,31.495691223324307
19620283,仙海胖哥鱼庄（天骄摩尔）,4.0,0.0,7.8,7.5,8.2,19 条点评,火锅 , 高水 跃进路时代天骄摩尔广场三楼,104.74721903571066,31.482605912452645
19640933,开心米粉,3.0,0.0,7.0,7.0,7.0,1 条点评,快餐简餐 , 北坝镇 三台恒昌路,105.09519744939979,31.11927820045561
19645509,芒果纯K卡门时尚音乐酒吧,4.0,0.0,7.8,8.3,8.0,20 条点评,酒吧 , 涪城区 铁牛街12号,104.75974926391328,31.469460525956254
19645516,老周记酸辣粉,4.0,0.0,8.0,7.9,8.1,49 条点评,小吃面食 , 马家巷 马家巷,119.4532885104832,32.40263712253378
19646811,乐山大众串串香,3.0,0.0,7.4,7.4,7.2,3 条点评,火锅 , 六里村 六里村阳光路中段,104.76837771021809,31.493796051375803
19650137,快当家(人人乐店),4.0,0.0,7.9,7.9,7.7,52 条点评,快餐简餐 , 涪城区 长虹大道东段110号崇尚国际人人乐1楼,104.74539082320115,31.471786395948207
19650145,快当家(天骄摩尔1958店),3.0,0.0,7.8,7.8,7.7,64 条点评,快餐简餐 , 天骄摩尔 跃进路131号天骄摩尔广场5楼2层B10号,104.74737699914137,31.482675227804823
19658590,烤味佳 烤猪蹄(（西科大新校区店... 分店,3.0,0.0,6.8,6.6,6.8,4 条点评,快餐简餐 , 西科大 西科大新校区小铁门旁边,113.86633758180707,22.775326147273237
19658605,烤味佳 烤猪蹄(西科大老校区店) 分店,3.0,0.0,6.2,6.8,6.8,1 条点评,快餐简餐 , 西科大 西科大老校区北门对面酱味鸭脖前,120.05595594176808,28.887529682227225
19660308,圣啡尚餐厅 X 功夫点心,3.0,0.0,6.5,6.5,6.5,2 条点评,快餐简餐 , 涪城区 涪城路58号兴宏国际广场5 A2-01号,104.75606168565922,31.464121130694515
19664770,福太乐烤鱼庄,3.0,0.0,7.2,7.1,7.2,19 条点评,川菜 , 东方红大桥 成绵路一巷,104.75525008459707,31.472277368051902
19675731,一代双椒鱼火锅,3.0,0.0,7.6,7.4,7.5,12 条点评,火锅 , 五里堆 治平路旅游学院斜对面,120.17029653460621,35.978923269088554
19686307,瑞余瓦缸烤鱼堂,4.0,0.0,7.7,7.5,8.0,13 条点评,川菜 , 塘汛 塘汛三元村四队,116.70279190166306,39.918192859628846
19695472,鼎鲜美蛙鱼头火锅(南河店),3.0,0.0,7.4,7.0,7.3,8 条点评,火锅 , 南河 体运村路72号,104.76455530888325,31.45589545296511
19701989,好伦哥(北京好伦哥餐饮有限公),4.0,0.0,7.6,8.3,8.0,1115 条点评,自助餐 , 凯德广场 临园路东段74号凯德广场1期5楼,104.74781245633054,31.470407279466674
19704906,卡卡角角吃铲铲(高新店) 分店,3.0,0.0,7.1,7.1,7.2,7 条点评,火锅 , 普明 普明南路东段63号,104.68990981753126,31.475263836336676
19708652,蜀烩冒菜北川二店,3.0,0.0,7.0,6.9,7.0,1 条点评,川菜 , 安县其他 石纽路47-5.6号,104.47360901127621,31.607256015579992
19709356,三年二班串串香,4.0,0.0,8.7,8.8,8.9,186 条点评,火锅 , 游仙区 五里堆路综合市场上行50米,104.76515370521736,31.48921101291166
19749532,四喜火锅,3.0,0.0,7.3,7.3,8.0,5 条点评,自助餐 , 青义 西南科技大学新区小东门外,104.71197227361905,31.540392681028347
19798664,一品居私房牛肉面,4.0,0.0,7.9,7.7,7.9,79 条点评,小吃面食 , 步行街 翰威城市中心5楼,104.75763854150735,31.466272155427077
19806872,豌杂面庄,3.0,0.0,7.0,6.9,6.9,1 条点评,川菜 , 西科大 西科大三食堂旁,120.05595594176808,28.887529682227225
19816364,汤多多豆腐脑,3.0,0.0,7.5,7.3,7.4,3 条点评,小吃面食 , 梓潼县其他 桂香路北段222号,105.17434438575785,31.645218256041023
19826824,贝贝酒吧,3.0,0.0,7.2,7.2,7.2,1 条点评,酒吧 , 西科大 西科大北门外,120.05595594176808,28.887529682227225
19826904,有情天地茶餐厅,3.0,0.0,6.9,7.0,6.9,1 条点评,西餐 , 西科大 西科大北门外,120.05595594176808,28.887529682227225
19827266,面哥面嫂,3.0,0.0,7.2,7.1,7.6,2 条点评,川菜 , 西科大 西科大北门外,120.05595594176808,28.887529682227225
19827994,徐亮胖哥烤蹄,4.0,0.0,8.1,8.1,8.0,174 条点评,小吃面食 , 马家巷 马家巷,119.4532885104832,32.40263712253378
19828071,幸意羊肉馆高水店,3.0,0.0,7.1,7.0,7.0,2 条点评,其他 , 圣水一队,116.03539784870385,39.91215206880499
1995721,好石光,3.0,0.0,7.1,6.8,6.7,96 条点评,川菜 , 人民公园 警钟街5号富临大观园旁,104.7580405053756,31.46502910203069
2016106,杨肥肠小火锅(东津路店) 分店,3.0,0.0,7.2,7.0,7.0,83 条点评,火锅 , 沈家坝 东津路33-4号,104.78254966090974,31.469409983311394
20623453,大草原烤羊腿,3.0,0.0,7.6,7.6,7.6,3 条点评,烧烤 , 开元场 开元南路韩家脊胜和枫景南门对面,104.76782355902357,31.48011696430004
20626096,佳佳来蛋糕店(青义店),4.0,0.0,8.1,8.0,8.1,17 条点评,面包甜点 , 青义 西南科技大学青羊西街和科大路交汇处,104.71231753105367,31.54270952045949
20626370,沐元鲜奶吧(沈家坝B002店),4.0,0.0,8.4,8.3,8.2,37 条点评,面包甜点 , 沈家坝 东津路42-11号,104.78482322993513,31.467615022698666
20627965,小脑壳大排档,3.0,0.0,7.5,7.6,7.7,9 条点评,川菜 , 铁牛广场 顺河前街7-1号,104.7641332607004,31.46709701655529
20632846,又壹佳双椒鱼,3.0,0.0,7.5,7.1,7.3,3 条点评,其他 , 西科大 西南科技大学。新区,104.70234598775717,31.54051373039241
20636983,特别特 食坊,3.0,0.0,7.6,7.6,7.5,27 条点评,川菜 , 马家巷 马家巷13号,115.9049867001211,28.67999868081185
20638356,四叶草手工烘焙,3.0,0.0,7.7,7.7,7.9,7 条点评,面包甜点 , 安县其他 金星颐苑7幢1单元201室,104.3687860107807,31.58918164277606
20639450,云南过桥米线～七彩云南,3.0,0.0,7.1,7.1,7.1,1 条点评,小吃面食 , 梓潼县中心城区 桂香路南段,105.17380311430439,31.63789884904582
20639653,蜀蓉春羊蝎子汤锅,3.0,0.0,7.6,7.5,7.5,8 条点评,火锅 , 御营坝 御营坝绵吴路口,104.74694405181776,31.460787789031052
20644513,富春轩砂锅,3.0,0.0,7.6,7.5,7.5,5 条点评,快餐简餐 , 六里村 六里村紫星街24号,104.77691325825857,31.490842236226293
20644624,杂七杂八牛杂火锅(三台店),4.0,0.0,8.3,7.9,8.0,20 条点评,火锅 , 三台县中心城区 三台县滨江名都涪滨路47号,105.10793843175306,31.098071478563828
20649390,欧洲屋茶楼,3.0,0.0,6.9,6.9,6.9,2 条点评,茶馆 , 游仙区 芙蓉汉城三期51栋,104.77959971544551,31.483236126397326
20650017,邱幺妹冷锅串串(三台店),5.0,0.0,9.2,9.2,9.3,109 条点评,火锅 , 三台县中心城区 会仙路（三台气象局旁边）,105.09741670148424,31.105081565201576
20652752,臊爷面,3.0,0.0,7.4,7.4,7.4,3 条点评,小吃面食 , 涪城区 南河东街8号,104.76849417373084,31.458852257412957
20659270,草包牛肉,3.0,0.0,7.0,7.0,7.0,1 条点评,其他 , 三台县其他 绵阳市三台县会仙路草包牛肉（耀森花园一期南门斜对面）,105.09677225351814,31.108156306051463
20661028,鸿福干锅(安昌店）,5.0,0.0,8.9,8.5,9.0,28 条点评,川菜 , 永昌镇 安昌镇安洲大道上段,104.42290771495364,31.630117838091557
20662991,巴口香火锅城,3.0,0.0,7.0,6.9,7.0,1 条点评,火锅 , 安县其他 安县秀水南苑社区,104.34298910198686,31.508716704791077
20671838,西蜀大宅门火锅店(高新店),5.0,0.0,9.1,9.2,9.2,152 条点评,火锅 , 双碑 高新区滨河北路100号塞纳阳小区,104.70179199556271,31.463457867995203
20673383,六婆串串,3.0,0.0,7.2,6.9,7.2,2 条点评,火锅 , 五里堆 五里堆(原山)对面,113.4458933056315,25.725513990280096
2067427,两岸咖啡,3.0,0.0,7.3,7.4,7.4,15 条点评,咖啡厅 , 人民公园 安昌路18号爱喜嘉年华3楼,104.75459958833999,31.465900599146774
20674321,龙奇圣蟹庄,3.0,0.0,7.7,7.7,7.2,1 条点评,江浙菜 , 涪城区 一环路南段245附5号,104.7667405717821,31.463388624127706
20675133,川西大坝子,4.0,0.0,7.9,7.8,8.0,248 条点评,火锅 , 游仙区 四川省绵阳市游仙区芙蓉汉城二期37栋2楼,104.7768897522983,31.480565655863117
20676753,大益茶,3.0,0.0,7.0,7.0,7.0,1 条点评,茶馆 , 涪城区 南河先农坛小区,104.77054039510624,31.46025446182126
20678905,钟排骨,3.0,0.0,7.0,7.0,7.0,1 条点评,川菜 , 花荄镇 花荄镇三十米大道,104.57019109084287,31.554705931351915
20680582,金银奥庭院火锅,4.0,0.0,8.8,9.1,8.9,98 条点评,火锅 , 涪城万达广场 新老茶树飞来石大桥36号,104.73182962503591,31.458069659711146
20680621,花半里T6火锅店(普名店),3.0,0.0,7.2,7.2,7.2,7 条点评,火锅 , 普明 高新区普明北路西段116号,104.66266666917748,31.477983149500965
20680914,羊蝎子,3.0,0.0,7.0,6.9,7.0,1 条点评,火锅 , 普明 高新区西点超市斜对面,125.17041523952625,46.593401691815295
20680963,红灯记·铜锅居,4.0,0.0,7.9,7.9,8.2,11 条点评,火锅 , 御营坝 御营坝一社百分百宾馆旁（御营小学对面）,104.74694405181776,31.460787789031052
20681155,愚记牛肉饼,3.0,0.0,7.1,7.0,7.1,4 条点评,清真菜 , 高新区 双碑中街公交站下车过马路就是,104.6843656771441,31.476503793986918
20687182,香院子,3.0,0.0,7.2,7.2,7.2,2 条点评,川菜 , 老茶树 新老茶树内,104.73182962503591,31.458069659711146
20694056,金园鸡排,3.0,0.0,6.9,6.8,6.9,1 条点评,小吃面食 , 步行街 马家巷,104.75488769018823,31.4707878758284
20697989,Q8豆捞,3.0,0.0,7.6,7.6,7.8,23 条点评,火锅 , 步行街 四川省绵阳市涪城区临园路东段中环美食城二楼,104.75488769018823,31.4707878758284
20701784,Q8豆捞小火锅,4.0,0.0,8.8,9.0,9.1,136 条点评,火锅 , 人民公园 茂业百货旁瀚威名店大厦5楼,104.75827133755267,31.46645696961733
20705375,金园大阪烧,4.0,0.0,8.0,7.9,8.2,177 条点评,小吃面食 , 马家巷 马家巷,119.4532885104832,32.40263712253378
20709300,1981老豆花,4.0,0.0,7.9,7.9,8.0,27 条点评,小吃面食 , 马家巷 马家巷内,119.4532885104832,32.40263712253378
20709548,果壳里牛排甜品店,4.0,0.0,7.8,7.9,7.8,50 条点评,西餐 , 西科大 流星花园宾馆,120.74772417055414,31.282265824449325
20709556,汉林宫,3.0,0.0,7.6,8.1,8.2,171 条点评,自助餐 , 五里堆 五里堆路38号,104.76949799959586,31.486804908517524
20710273,三角芝恋,4.0,0.0,7.7,7.8,8.0,64 条点评,小吃面食 , 步行街 马家巷内,104.75488769018823,31.4707878758284
20710883,撸啊撸主题文化小吃部落,3.0,0.0,7.5,7.7,7.7,25 条点评,小吃面食 , 马家巷 马家巷内,119.4532885104832,32.40263712253378
20711409,胥生蚝,4.0,0.0,8.3,7.9,8.5,221 条点评,烧烤 , 马家巷 马家巷内,119.4532885104832,32.40263712253378
20711727,半山蓝湾生态园,3.0,0.0,6.7,6.9,6.7,1 条点评,川菜 , 双碑 四川省绵阳市高新区园艺街45号,104.69807429981982,31.47609239654925
20722416,银格顿牛排自助餐厅(绵阳店),4.0,0.0,8.8,9.1,8.7,420 条点评,西餐 , 人民公园 瀚威名店5楼,104.75827133755267,31.46645696961733
20726467,飚锅串串香,3.0,0.0,7.4,7.1,7.1,7 条点评,火锅 , 沿江路 沿江东街55号,104.74783449895114,31.468011351758342
20728814,柠檬皇后,3.0,0.0,7.4,7.5,7.6,17 条点评,面包甜点 , 步行街 瀚威名店5楼2号,104.75827133755267,31.46645696961733
20730266,麦司玛琪,4.0,0.0,8.9,9.0,9.0,1080 条点评,面包甜点 , 涪城区 茂业商场内1F（屈臣氏旁）,104.7574100422297,31.46742389807594
20730487,舌尖故事,3.0,0.0,7.3,7.7,7.5,8 条点评,川菜 , 涪城区 高新区双碑中街火炬北路17号,104.69101367959617,31.473000258231774
20730519,小时代快餐吧,3.0,0.0,7.3,7.4,7.3,16 条点评,快餐简餐 , 安昌路 安昌路天津桥附近,104.75195789820812,31.46644346727454
20731198,重庆东原杀牛场老火锅,3.0,0.0,7.2,7.2,7.1,2 条点评,火锅 , 涪城万达广场 桂园雅居河堤大门边,104.72307023902505,31.456786081982543
20748565,乐山大众串串,3.0,0.0,7.3,7.3,6.8,2 条点评,火锅 , 御营坝 御营坝绵吴路口,104.74694405181776,31.460787789031052
20774323,品香园,3.0,0.0,7.6,7.6,7.6,1 条点评,快餐简餐 , 梓潼县其他 梓潼县医院旁边和平小区,105.1938341844829,31.653620996937434
20774921,同桌有你主题干锅,4.0,0.0,8.4,8.8,8.5,184 条点评,川菜 , 江油市中心城区 江油市北门口太白公园正门对面太白大厦2楼,104.74528136916629,31.78731539765428
20778007,金园牧场,4.0,0.0,7.8,8.0,8.1,123 条点评,小吃面食 , 马家巷 马家巷,119.4532885104832,32.40263712253378
20778230,鲜芋仙(瀚威店),4.0,0.0,8.7,8.9,8.7,255 条点评,面包甜点 , 步行街 公园口瀚威名店二楼,104.75827133755267,31.46645696961733
2078794,美味园,3.0,0.0,7.1,7.0,7.1,6 条点评,川菜 , 五里堆 科学城望江市场外,104.76443022612912,31.4904167362602
20790050,百姓家常菜,3.0,0.0,7.4,6.8,7.4,2 条点评,其他 , 西科大 西南科技大学老区,104.70234598775717,31.54051373039241
20790085,小筑咖啡川音,4.0,0.0,7.8,7.8,7.7,5 条点评,咖啡厅 , 南湖 川音校内,120.84453542647287,30.71635792123517
20790107,淳味源,3.0,0.0,6.5,6.5,6.5,2 条点评,快餐简餐 , 西科大 新区小铁门,120.05595594176808,28.887529682227225
20790108,土耳其烤肉饭,3.0,0.0,7.2,6.8,6.8,1 条点评,烧烤 , 西科大 西科大北门口,120.05595594176808,28.887529682227225
20790112,石锅拌饭,3.0,0.0,6.6,6.6,6.6,2 条点评,韩国料理 , 高新区 磨家镇,104.55815932248636,31.466821142662273
20790118,台湾手抓饼,3.0,0.0,7.5,7.5,7.6,4 条点评,小吃面食 , 西科大 西科大新区小铁门,120.05595594176808,28.887529682227225
